[
  {
    "scity": "台中市",
    "scityen": "Taichung City",
    "sna": "YouBike2.0_臺灣大道遊園北路口",
    "sarea": "龍井區",
    "ar": "臺灣大道五段/遊園北路口(東側)",
    "snaen": "YouBike2.0_Taiwan Blvd. / Youyuan N. Rd.",
    "sareaen": "Longjing Dist",
    "aren": "Sec. 5, Taiwan Blvd. & Youyuan N. Rd. Intersection (East)",
    "sno": "500624011",
    "tot": "10",
    "sbi": "6",
    "mday": "20210628120710",
    "lat": "24.18627",
    "lng": "120.58595",
    "bemp": "4",
    "act": 1
  },
  {
    "scity": "台中市",
    "scityen": "Taichung City",
    "sna": "YouBike2.0_益民國小",
    "sarea": "大里區",
    "ar": "益民路二段/益民路二段81巷口(北側)",
    "snaen": "YouBike2.0_Yi-Min Elementary School",
    "sareaen": "Dali Dist",
    "aren": "Sec. 2, Yimin Rd. & Ln. 81, Sec. 2, Yimin Rd. Intersection (North)",
    "sno": "500610034",
    "tot": "12",
    "sbi": "3",
    "mday": "20210628120709",
    "lat": "24.10674",
    "lng": "120.68673",
    "bemp": "9",
    "act": 1
  },
  {
    "scity": "台中市",
    "scityen": "Taichung City",
    "sna": "YouBike2.0_祥順運動公園",
    "sarea": "太平區",
    "ar": "宜昌路87巷/宜昌路口(西南側)",
    "snaen": "YouBike2.0_Xiangshun Sports Park",
    "sareaen": "Taiping Dist",
    "aren": "Ln. 87, Yichang Rd. & Yichang Rd. Intersection (Southwest)",
    "sno": "500611012",
    "tot": "10",
    "sbi": "2",
    "mday": "20210628120710",
    "lat": "24.13747",
    "lng": "120.71251",
    "bemp": "8",
    "act": 1
  },
  {
    "scity": "台中市",
    "scityen": "Taichung City",
    "sna": "YouBike2.0_屯區藝文中心",
    "sarea": "太平區",
    "ar": "長安東路/長安路口(東南側)",
    "snaen": "YouBike2.0_Taichung City Tun District Art Center",
    "sareaen": "Taiping Dist",
    "aren": "Chang'an E. Rd. & Chang'an Rd. Intersection (Southeast)",
    "sno": "500611020",
    "tot": "10",
    "sbi": "1",
    "mday": "20210628120710",
    "lat": "24.15664",
    "lng": "120.73372",
    "bemp": "9",
    "act": 1
  },
  {
    "scity": "台中市",
    "scityen": "Taichung City",
    "sna": "YouBike2.0_南屯區福德公園",
    "sarea": "南屯區",
    "ar": "干城街/干城街202巷口(西南側)",
    "snaen": "YouBike2.0_Nantun District Fude Park",
    "sareaen": "Nantun Dist",
    "aren": "Gancheng St & Ln. 202, Gancheng St. Intersection (Southwest)",
    "sno": "500607063",
    "tot": "13",
    "sbi": "5",
    "mday": "20210628120709",
    "lat": "24.152823",
    "lng": "120.628839",
    "bemp": "8",
    "act": 1
  },
  {
    "scity": "台中市",
    "scityen": "Taichung City",
    "sna": "YouBike2.0_臺中市環保局南屯清潔隊",
    "sarea": "南屯區",
    "ar": "東興路一段/永春東路口(東南側)",
    "snaen": "YouBike2.0_Nantun Cleaning Unit, Taichung Environmental Protection Bureau",
    "sareaen": "Nantun Dist",
    "aren": "Sec. 1, Dongxing Rd.& Yongchun E. Rd. Intersection (Southeast)",
    "sno": "500607066",
    "tot": "22",
    "sbi": "5",
    "mday": "20210628120709",
    "lat": "24.134676",
    "lng": "120.653126",
    "bemp": "17",
    "act": 1
  },
  {
    "scity": "台中市",
    "scityen": "Taichung City",
    "sna": "YouBike2.0_臺灣大道福林路口(東北側)",
    "sarea": "西屯區",
    "ar": "臺灣大道四段/福林路口(東北側)",
    "snaen": "YouBike2.0_Taiwan Blvd. / Fulin Rd. (Northeast)",
    "sareaen": "Xitun Dist",
    "aren": "Sec. 4, Taiwan Blvd & Fulin Rd. Intersection (Northeast)",
    "sno": "500606105",
    "tot": "18",
    "sbi": "8",
    "mday": "20210628120708",
    "lat": "24.183812",
    "lng": "120.614265",
    "bemp": "10",
    "act": 1
  },
  {
    "scity": "台中市",
    "scityen": "Taichung City",
    "sna": "YouBike2.0_工業區一路工業區一路58巷口",
    "sarea": "西屯區",
    "ar": "工業區一路/工業區一路58巷口(西南側)",
    "snaen": "YouBike2.0_Gongyequ 1st Rd. / Ln.58 Gongyequ 1st Rd.",
    "sareaen": "Xitun Dist",
    "aren": "Gongyequ 1st Rd. & Ln. 58 Gongyequ 1st Rd. Intersection (Southwest)",
    "sno": "500606107",
    "tot": "14",
    "sbi": "4",
    "mday": "20210628120708",
    "lat": "24.17958",
    "lng": "120.614687",
    "bemp": "10",
    "act": 1
  },
  {
    "scity": "台中市",
    "scityen": "Taichung City",
    "sna": "YouBike2.0_龍井國小",
    "sarea": "龍井區",
    "ar": "龍門路/舊車路口(西南側)",
    "snaen": "YouBike2.0_Longjing Elementary School",
    "sareaen": "Longjing Dist",
    "aren": "Longmen Rd & Jiuche Rd. Intersection (Southwest)",
    "sno": "500624005",
    "tot": "10",
    "sbi": "4",
    "mday": "20210628120710",
    "lat": "24.183368",
    "lng": "120.530219",
    "bemp": "6",
    "act": 1
  },
  {
    "scity": "台中市",
    "scityen": "Taichung City",
    "sna": "YouBike2.0_龍井圖書館",
    "sarea": "龍井區",
    "ar": "觀光路/沙田路四段口(西北側)",
    "snaen": "YouBike2.0_Longjing District Library",
    "sareaen": "Longjing Dist",
    "aren": "Guanguang Rd & Sec. 4, Shatian Rd. Intersection (Northwest)",
    "sno": "500624006",
    "tot": "10",
    "sbi": "4",
    "mday": "20210628120710",
    "lat": "24.19213",
    "lng": "120.54509",
    "bemp": "6",
    "act": 1
  },
  {
    "scity": "台中市",
    "scityen": "Taichung City",
    "sna": "YouBike2.0_拍瀑拉公園",
    "sarea": "龍井區",
    "ar": "中社路/中社二街口(西南側)",
    "snaen": "YouBike2.0_Papora Park",
    "sareaen": "Longjing Dist",
    "aren": "Zhongshe Rd. & Zhongshe 2nd St. Intersection (Southwest)",
    "sno": "500624009",
    "tot": "15",
    "sbi": "4",
    "mday": "20210628120710",
    "lat": "24.19956",
    "lng": "120.56215",
    "bemp": "11",
    "act": 1
  },
  {
    "scity": "台中市",
    "scityen": "Taichung City",
    "sna": "YouBike2.0_大里運動公園",
    "sarea": "大里區",
    "ar": "國光路一段/大里路口(東南側)",
    "snaen": "YouBike2.0_Dali Sports Park",
    "sareaen": "Dali Dist",
    "aren": "Sec. 1, Guoguang Rd. & Dali Rd. Intersection (Southeast)",
    "sno": "500610027",
    "tot": "14",
    "sbi": "6",
    "mday": "20210628120709",
    "lat": "24.10028",
    "lng": "120.68267",
    "bemp": "8",
    "act": 1
  },
  {
    "scity": "台中市",
    "scityen": "Taichung City",
    "sna": "YouBike2.0_沙鹿車站(新站路西側出口)",
    "sarea": "沙鹿區",
    "ar": "新站三路/新站路口(西北側)",
    "snaen": "YouBike2.0_Shalu Station (Xinzhan Rd. West Exit)",
    "sareaen": "Shalu Dist",
    "aren": "Xinzhan 3rd Rd. & Xinzhan Rd. Intersection (Northwest)",
    "sno": "500613012",
    "tot": "14",
    "sbi": "5",
    "mday": "20210628120710",
    "lat": "24.23752",
    "lng": "120.55638",
    "bemp": "9",
    "act": 1
  },
  {
    "scity": "台中市",
    "scityen": "Taichung City",
    "sna": "YouBike2.0_沙鹿高工",
    "sarea": "沙鹿區",
    "ar": "台灣大道七段/光華路口(東南側)",
    "snaen": "YouBike2.0_Sha-Lu Industrial Senior High School",
    "sareaen": "Shalu Dist",
    "aren": "Sec. 7, Taiwan Blvd & Guanghua Rd. Intersection (Southeast)",
    "sno": "500613013",
    "tot": "12",
    "sbi": "1",
    "mday": "20210628120710",
    "lat": "24.23888",
    "lng": "120.56583",
    "bemp": "11",
    "act": 1
  },
  {
    "scity": "台中市",
    "scityen": "Taichung City",
    "sna": "YouBike2.0_光大公園",
    "sarea": "沙鹿區",
    "ar": "光大路/光華路口(東北側)",
    "snaen": "YouBike2.0_Guangda Park",
    "sareaen": "Shalu Dist",
    "aren": "Guangda Rd. & Guanghua Rd. Intersection (Northeast)",
    "sno": "500613015",
    "tot": "10",
    "sbi": "4",
    "mday": "20210628120710",
    "lat": "24.24384",
    "lng": "120.56529",
    "bemp": "6",
    "act": 1
  },
  {
    "scity": "台中市",
    "scityen": "Taichung City",
    "sna": "YouBike2.0_中山路四平街口",
    "sarea": "沙鹿區",
    "ar": "中山路/四平街口(西南側)",
    "snaen": "YouBike2.0_Zhongshan Rd./Sihping St.",
    "sareaen": "Shalu Dist",
    "aren": "Zhongshan Rd. & Siping St. Intersection (Southwest)",
    "sno": "500613017",
    "tot": "10",
    "sbi": "4",
    "mday": "20210628120710",
    "lat": "24.23781",
    "lng": "120.56093",
    "bemp": "6",
    "act": 1
  },
  {
    "scity": "台中市",
    "scityen": "Taichung City",
    "sna": "YouBike2.0_麗水籃球場",
    "sarea": "龍井區",
    "ar": "三港路/水裡港巷(東北側)",
    "snaen": "YouBike2.0_LiShui Basketball Court",
    "sareaen": "Longjing Dist",
    "aren": "Sangang Rd. & Shuiligang Ln., Sangang Rd. Intersection (Northeast)",
    "sno": "500624001",
    "tot": "10",
    "sbi": "4",
    "mday": "20210628120710",
    "lat": "24.199905",
    "lng": "120.498432",
    "bemp": "6",
    "act": 1
  },
  {
    "scity": "台中市",
    "scityen": "Taichung City",
    "sna": "YouBike2.0_龍津高中",
    "sarea": "龍井區",
    "ar": "三港路/龍津街口(西北側)",
    "snaen": "YouBike2.0_Long-Jin Senior High School",
    "sareaen": "Longjing Dist",
    "aren": "Sangang Rd. & Longjin St. Intersection (Northwest)",
    "sno": "500624002",
    "tot": "20",
    "sbi": "5",
    "mday": "20210628120710",
    "lat": "24.204405",
    "lng": "120.521017",
    "bemp": "15",
    "act": 1
  },
  {
    "scity": "台中市",
    "scityen": "Taichung City",
    "sna": "YouBike2.0_龍井籃球場",
    "sarea": "龍井區",
    "ar": "中厝路50巷60弄/中厝路56巷口(西北側)",
    "snaen": "YouBike2.0_Longjing Basketball Court",
    "sareaen": "Longjing Dist",
    "aren": "Aly. 60, Ln. 50, Zhongcuo Rd. & Ln. 56, Zhongcuo Rd. Intersection (Northwest)",
    "sno": "500624003",
    "tot": "13",
    "sbi": "4",
    "mday": "20210628120710",
    "lat": "24.203478",
    "lng": "120.525007",
    "bemp": "9",
    "act": 1
  },
  {
    "scity": "台中市",
    "scityen": "Taichung City",
    "sna": "YouBike2.0_育賢停車場(近環中東路)",
    "sarea": "太平區",
    "ar": "育賢路233號(對側人行道)",
    "snaen": "YouBike2.0_Yaxian Parking Lot (Near Huanzhong E. Rd.)",
    "sareaen": "Taiping Dist",
    "aren": "No.233, Yuxian Rd. (Opposite)",
    "sno": "500611026",
    "tot": "20",
    "sbi": "10",
    "mday": "20210628120710",
    "lat": "24.15834",
    "lng": "120.71798",
    "bemp": "10",
    "act": 1
  },
  {
    "scity": "台中市",
    "scityen": "Taichung City",
    "sna": "YouBike2.0_公益惠文路口",
    "sarea": "南屯區",
    "ar": "公益路二段/惠文路口(東南側)",
    "snaen": "YouBike2.0_Gongyi Rd. / Huiwen Rd.",
    "sareaen": "Nantun Dist",
    "aren": "Sec. 2, Gongyi Rd. & Huiwen Rd. Intersection (Southeast)",
    "sno": "500607051",
    "tot": "15",
    "sbi": "4",
    "mday": "20210628120709",
    "lat": "24.150873",
    "lng": "120.644278",
    "bemp": "11",
    "act": 1
  },
  {
    "scity": "台中市",
    "scityen": "Taichung City",
    "sna": "YouBike2.0_崇德進化北路口",
    "sarea": "北區",
    "ar": "崇德路一段462號(前人行道)",
    "snaen": "YouBike2.0_Chongde Rd. / Jinhua N. Rd.",
    "sareaen": "North Dist",
    "aren": "No.462, Sec. 1, Chongde Rd. (Front)",
    "sno": "500605047",
    "tot": "23",
    "sbi": "6",
    "mday": "20210628120809",
    "lat": "24.163505",
    "lng": "120.685128",
    "bemp": "17",
    "act": 1
  },
  {
    "scity": "台中市",
    "scityen": "Taichung City",
    "sna": "YouBike2.0_仁和福德公園",
    "sarea": "北屯區",
    "ar": "榮德路/仁平街口(東南側)",
    "snaen": "YouBike2.0_Renhe Fude Park",
    "sareaen": "Beitun Dist",
    "aren": "Rongde Rd. & Renping St. Intersection (Southeast)",
    "sno": "500608086",
    "tot": "11",
    "sbi": "6",
    "mday": "20210628120709",
    "lat": "24.182242",
    "lng": "120.678732",
    "bemp": "5",
    "act": 1
  },
  {
    "scity": "台中市",
    "scityen": "Taichung City",
    "sna": "YouBike2.0_三鹿社區活動中心",
    "sarea": "沙鹿區",
    "ar": "自強路/自強路291巷口(西北側)",
    "snaen": "YouBike2.0_Sanlu Community Center",
    "sareaen": "Shalu Dist",
    "aren": "Ziqiang Rd. & Ln. 291, Ziqiang Rd. Intersection (Northwest)",
    "sno": "500613018",
    "tot": "10",
    "sbi": "4",
    "mday": "20210628120710",
    "lat": "24.201468",
    "lng": "120.567989",
    "bemp": "6",
    "act": 1
  },
  {
    "scity": "台中市",
    "scityen": "Taichung City",
    "sna": "YouBike2.0_東村公園",
    "sarea": "太平區",
    "ar": "東村八街13巷16號旁公園",
    "snaen": "YouBike2.0_Dongcun Park",
    "sareaen": "Taiping Dist",
    "aren": "No.16, Ln. 13, Dongcun 8th St. Side Park",
    "sno": "500611023",
    "tot": "12",
    "sbi": "5",
    "mday": "20210628120710",
    "lat": "24.13703",
    "lng": "120.72475",
    "bemp": "7",
    "act": 1
  },
  {
    "scity": "台中市",
    "scityen": "Taichung City",
    "sna": "YouBike2.0_育賢停車場(育賢路)",
    "sarea": "太平區",
    "ar": "育賢路181號(對側人行道)",
    "snaen": "YouBike2.0_Yaxian Parking Lot (Yaxian Rd.)",
    "sareaen": "Taiping Dist",
    "aren": "No.181, Yuxian Rd. (Opposite)",
    "sno": "500611025",
    "tot": "20",
    "sbi": "4",
    "mday": "20210628120710",
    "lat": "24.15801",
    "lng": "120.71939",
    "bemp": "16",
    "act": 1
  },
  {
    "scity": "台中市",
    "scityen": "Taichung City",
    "sna": "YouBike2.0_靜宜大學",
    "sarea": "沙鹿區",
    "ar": "臺灣大道七段200號(南側人行道)",
    "snaen": "YouBike2.0_Providence University",
    "sareaen": "Shalu Dist",
    "aren": "No.200, Sec. 7, Taiwan Blvd. (South)",
    "sno": "500613004",
    "tot": "17",
    "sbi": "8",
    "mday": "20210628120710",
    "lat": "24.225434",
    "lng": "120.577231",
    "bemp": "9",
    "act": 1
  },
  {
    "scity": "台中市",
    "scityen": "Taichung City",
    "sna": "YouBike2.0_日新河濱公園",
    "sarea": "大里區",
    "ar": "福大路/中興路二段日新二巷口(西側)",
    "snaen": "YouBike2.0_R Shin Riverside Park",
    "sareaen": "Dali Dist",
    "aren": "Fuda Rd. & Rixin 2nd Ln., Sec. 2, Zhongxing Rd. Intersection (west)",
    "sno": "500610018",
    "tot": "15",
    "sbi": "5",
    "mday": "20210628120709",
    "lat": "24.12057",
    "lng": "120.69077",
    "bemp": "10",
    "act": 1
  },
  {
    "scity": "台中市",
    "scityen": "Taichung City",
    "sna": "YouBike2.0_鹿鳴公園(賢義街)",
    "sarea": "沙鹿區",
    "ar": "賢義街/光華路口(東南側)",
    "snaen": "YouBike2.0_Luming Park (Xianyi St.)",
    "sareaen": "Shalu Dist",
    "aren": "Xianyi St. & Guanghua Rd. Intersection (Southeast)",
    "sno": "500613007",
    "tot": "15",
    "sbi": "4",
    "mday": "20210628120710",
    "lat": "24.243432",
    "lng": "120.566751",
    "bemp": "11",
    "act": 1
  },
  {
    "scity": "台中市",
    "scityen": "Taichung City",
    "sna": "YouBike2.0_鹿寮成衣商圈(中山路)",
    "sarea": "沙鹿區",
    "ar": "中山路/錦華街口(東北側)",
    "snaen": "YouBike2.0_Luliao Adult clothing business district",
    "sareaen": "Shalu Dist",
    "aren": "Zhongshan Rd. & Jinhua St. Intersection (Northeast)",
    "sno": "500613009",
    "tot": "13",
    "sbi": "6",
    "mday": "20210628120710",
    "lat": "24.249281",
    "lng": "120.565039",
    "bemp": "7",
    "act": 1
  },
  {
    "scity": "台中市",
    "scityen": "Taichung City",
    "sna": "YouBike2.0_沙鹿區公所",
    "sarea": "沙鹿區",
    "ar": "鎮政路/鎮南路二段口(東北側)",
    "snaen": "YouBike2.0_Shalu District Office",
    "sareaen": "Shalu Dist",
    "aren": "Zhennan Rd. & Sec. 2, Zhennan Rd. Intersection (Northeast)",
    "sno": "500613014",
    "tot": "10",
    "sbi": "6",
    "mday": "20210628120710",
    "lat": "24.23392",
    "lng": "120.56586",
    "bemp": "4",
    "act": 1
  },
  {
    "scity": "台中市",
    "scityen": "Taichung City",
    "sna": "YouBike2.0_中山光華路口",
    "sarea": "沙鹿區",
    "ar": "中山路/光華路口(西北側)",
    "snaen": "YouBike2.0_Zhongshan Rd./Guanghua Rd.",
    "sareaen": "Shalu Dist",
    "aren": "Zhongshan Rd. & Guanghua Rd. Intersection (Northwest)",
    "sno": "500613016",
    "tot": "12",
    "sbi": "5",
    "mday": "20210628120710",
    "lat": "24.23736",
    "lng": "120.56425",
    "bemp": "7",
    "act": 1
  },
  {
    "scity": "台中市",
    "scityen": "Taichung City",
    "sna": "YouBike2.0_佛教正德醫院",
    "sarea": "南屯區",
    "ar": "文心南五路三段100號",
    "snaen": "YouBike2.0_Buddhist Chengte Hospital",
    "sareaen": "Nantun Dist",
    "aren": "No.100, Sec. 3, Wenxin S. 5th Rd.",
    "sno": "500607034",
    "tot": "15",
    "sbi": "8",
    "mday": "20210628120708",
    "lat": "24.1429027",
    "lng": "120.6308554",
    "bemp": "7",
    "act": 1
  },
  {
    "scity": "台中市",
    "scityen": "Taichung City",
    "sna": "YouBike2.0_洲際棒球場(環中路)",
    "sarea": "北屯區",
    "ar": "環中路一段980號(對側人行道)",
    "snaen": "YouBike2.0_Intercontinental Baseball Stadium (Huanzhong Rd.)",
    "sareaen": "Beitun Dist",
    "aren": "No.980, Sec. 1, Huanzhong Rd. (Opposite)",
    "sno": "500608062",
    "tot": "15",
    "sbi": "2",
    "mday": "20210628120709",
    "lat": "24.20077",
    "lng": "120.68406",
    "bemp": "13",
    "act": 1
  },
  {
    "scity": "台中市",
    "scityen": "Taichung City",
    "sna": "YouBike2.0_文昌兒童公園",
    "sarea": "南屯區",
    "ar": "文昌街/文昌街225巷口(東南側)",
    "snaen": "YouBike2.0_Wenchang Children's Park",
    "sareaen": "Nantun Dist",
    "aren": "Wenchang St. & Ln. 225, Wenchang St. Intersection (Southeast)",
    "sno": "500607040",
    "tot": "9",
    "sbi": "3",
    "mday": "20210628120708",
    "lat": "24.138501",
    "lng": "120.63583",
    "bemp": "6",
    "act": 1
  },
  {
    "scity": "台中市",
    "scityen": "Taichung City",
    "sna": "YouBike2.0_田心公園",
    "sarea": "南屯區",
    "ar": "惠弘街/惠德街口(西南側)",
    "snaen": "YouBike2.0_Tianxin Park",
    "sareaen": "Nantun Dist",
    "aren": "Huihong St. & Huide St. Intersection (Southwest)",
    "sno": "500607041",
    "tot": "11",
    "sbi": "5",
    "mday": "20210628120708",
    "lat": "24.139972",
    "lng": "120.642972",
    "bemp": "6",
    "act": 1
  },
  {
    "scity": "台中市",
    "scityen": "Taichung City",
    "sna": "YouBike2.0_文心森林公園(惠文向上路口)",
    "sarea": "南屯區",
    "ar": "惠文路/向上路二段口(東南側)",
    "snaen": "YouBike2.0_Wen-Xin Forest Park (Huiwen Rd. / Xiangshang Rd.)",
    "sareaen": "Nantun Dist",
    "aren": "Huiwen Rd. & Sec. 2, Xiangshang Rd. Intersection (Southeast)",
    "sno": "500607043",
    "tot": "20",
    "sbi": "3",
    "mday": "20210628120708",
    "lat": "24.14675",
    "lng": "120.643847",
    "bemp": "17",
    "act": 1
  },
  {
    "scity": "台中市",
    "scityen": "Taichung City",
    "sna": "YouBike2.0_北勢國小",
    "sarea": "沙鹿區",
    "ar": "過洋路/過洋路口(東南側)",
    "snaen": "YouBike2.0_BeiShih Elementary School",
    "sareaen": "Shalu Dist",
    "aren": "Guoyang Rd. & Guoyang Rd. Intersection (Southeast)",
    "sno": "500613001",
    "tot": "15",
    "sbi": "6",
    "mday": "20210628120710",
    "lat": "24.217451",
    "lng": "120.57138",
    "bemp": "9",
    "act": 1
  },
  {
    "scity": "台中市",
    "scityen": "Taichung City",
    "sna": "YouBike2.0_六福公園",
    "sarea": "沙鹿區",
    "ar": "北勢東路/北勢東路265巷口(西北側)",
    "snaen": "YouBike2.0_Liufu Park",
    "sareaen": "Shalu Dist",
    "aren": "Beishi E. Rd. & Ln. 265, Beishi E. Rd. Intersection (Northwest)",
    "sno": "500613002",
    "tot": "18",
    "sbi": "3",
    "mday": "20210628120710",
    "lat": "24.215764",
    "lng": "120.579808",
    "bemp": "15",
    "act": 1
  },
  {
    "scity": "台中市",
    "scityen": "Taichung City",
    "sna": "YouBike2.0_文修公園",
    "sarea": "西屯區",
    "ar": "福星路114號(對側人行道)",
    "snaen": "YouBike2.0_Wen Xiu Park",
    "sareaen": "Xitun Dist",
    "aren": "No.114, Fuxing Rd. (Opposite)",
    "sno": "500606096",
    "tot": "14",
    "sbi": "6",
    "mday": "20210628120708",
    "lat": "24.18234",
    "lng": "120.642",
    "bemp": "8",
    "act": 1
  },
  {
    "scity": "台中市",
    "scityen": "Taichung City",
    "sna": "YouBike2.0_臺中市議會",
    "sarea": "西屯區",
    "ar": "市政北一路56號(對側人行道)",
    "snaen": "YouBike2.0_Taichung City Council",
    "sareaen": "Xitun Dist",
    "aren": "No.56, Shizheng N. 1st Rd. (Opposite)",
    "sno": "500606097",
    "tot": "16",
    "sbi": "13",
    "mday": "20210628120708",
    "lat": "24.15805",
    "lng": "120.64403",
    "bemp": "3",
    "act": 1
  },
  {
    "scity": "台中市",
    "scityen": "Taichung City",
    "sna": "YouBike2.0_犁頭店公園",
    "sarea": "南屯區",
    "ar": "惠中路三段/大墩四街口(西南側)",
    "snaen": "YouBike2.0_Litoudian Park",
    "sareaen": "Nantun Dist",
    "aren": "Sec. 3, Huizhong Rd. & Dadun 4th St. Intersection (Southwest)",
    "sno": "500607059",
    "tot": "12",
    "sbi": "6",
    "mday": "20210628120709",
    "lat": "24.14234",
    "lng": "120.64057",
    "bemp": "6",
    "act": 1
  },
  {
    "scity": "台中市",
    "scityen": "Taichung City",
    "sna": "YouBike2.0_高登公園",
    "sarea": "西屯區",
    "ar": "重慶路431-433號(對側人行道)",
    "snaen": "YouBike2.0_Gaodeng Park",
    "sareaen": "Xitun Dist",
    "aren": "No.431-433, Chongqing Rd. (Opposite)",
    "sno": "500606099",
    "tot": "12",
    "sbi": "4",
    "mday": "20210628120708",
    "lat": "24.17106",
    "lng": "120.66571",
    "bemp": "8",
    "act": 1
  },
  {
    "scity": "台中市",
    "scityen": "Taichung City",
    "sna": "YouBike2.0_春安國小",
    "sarea": "南屯區",
    "ar": "春安路/春安一街口(西北側)",
    "snaen": "YouBike2.0_Chun An Elementary School",
    "sareaen": "Nantun Dist",
    "aren": "Chun'an Rd. & Chun'an 1st St. Intersection (Northwest)",
    "sno": "500607060",
    "tot": "10",
    "sbi": "6",
    "mday": "20210628120709",
    "lat": "24.13454",
    "lng": "120.60872",
    "bemp": "4",
    "act": 1
  },
  {
    "scity": "台中市",
    "scityen": "Taichung City",
    "sna": "YouBike2.0_萬和宮",
    "sarea": "南屯區",
    "ar": "萬和路一段/文昌街口(西側)",
    "snaen": "YouBike2.0_Wan He Temple",
    "sareaen": "Nantun Dist",
    "aren": "Sec. 1, Wanhe Rd. & Wenchang St. Intersection (West)",
    "sno": "500607054",
    "tot": "16",
    "sbi": "5",
    "mday": "20210628120709",
    "lat": "24.1377",
    "lng": "120.639",
    "bemp": "11",
    "act": 1
  },
  {
    "scity": "台中市",
    "scityen": "Taichung City",
    "sna": "YouBike2.0_黎光公園",
    "sarea": "南屯區",
    "ar": "干城街/懷德街口(南側)",
    "snaen": "YouBike2.0_Liguang Park",
    "sareaen": "Nantun Dist",
    "aren": "Gancheng St. & Huaide St. Intersection (Southwest)",
    "sno": "500607055",
    "tot": "16",
    "sbi": "5",
    "mday": "20210628120709",
    "lat": "24.15187",
    "lng": "120.63052",
    "bemp": "11",
    "act": 1
  },
  {
    "scity": "台中市",
    "scityen": "Taichung City",
    "sna": "YouBike2.0_保安公園",
    "sarea": "南屯區",
    "ar": "文山五街/保安五街口（西北側）",
    "snaen": "YouBike2.0_Baoan Park",
    "sareaen": "Nantun Dist",
    "aren": "Wenshan 5th St. & Bao'an 5th St. Intersection (Northwest)",
    "sno": "500607056",
    "tot": "16",
    "sbi": "5",
    "mday": "20210628120709",
    "lat": "24.14725",
    "lng": "120.6122",
    "bemp": "11",
    "act": 1
  },
  {
    "scity": "台中市",
    "scityen": "Taichung City",
    "sna": "YouBike2.0_春社公園",
    "sarea": "南屯區",
    "ar": "永春路/嶺東路80巷口(東南側)",
    "snaen": "YouBike2.0_Chunshe Park",
    "sareaen": "Nantun Dist",
    "aren": "Yongchun Rd. & Ln. 80, Lingdong Rd. Intersection (Southeast)",
    "sno": "500607057",
    "tot": "16",
    "sbi": "8",
    "mday": "20210628120709",
    "lat": "24.14051",
    "lng": "120.61049",
    "bemp": "8",
    "act": 1
  },
  {
    "scity": "台中市",
    "scityen": "Taichung City",
    "sna": "YouBike2.0_南屯區公所",
    "sarea": "南屯區",
    "ar": "永春東路679號前",
    "snaen": "YouBike2.0_Nantun District Office",
    "sareaen": "Nantun Dist",
    "aren": "Nantun District Office",
    "sno": "500607058",
    "tot": "12",
    "sbi": "7",
    "mday": "20210628120709",
    "lat": "24.13467",
    "lng": "120.64454",
    "bemp": "5",
    "act": 1
  },
  {
    "scity": "台中市",
    "scityen": "Taichung City",
    "sna": "YouBike2.0_上德公園",
    "sarea": "西屯區",
    "ar": "上石路73號",
    "snaen": "YouBike2.0_Shang De Park",
    "sareaen": "Xitun Dist",
    "aren": "No.73, Shangshi Rd.",
    "sno": "500606095",
    "tot": "16",
    "sbi": "11",
    "mday": "20210628120708",
    "lat": "24.16931",
    "lng": "120.64451",
    "bemp": "5",
    "act": 1
  },
  {
    "scity": "台中市",
    "scityen": "Taichung City",
    "sna": "YouBike2.0_德芳南路德芳南一街口",
    "sarea": "大里區",
    "ar": "德芳南路/德芳南一街口(西北側)",
    "snaen": "YouBike2.0_DeFang S. Rd. / DeFang S. 1st St.",
    "sareaen": "Dali Dist",
    "aren": "Defang S. Rd. & Defang S. 1st St. Intersection (Northwest)",
    "sno": "500610009",
    "tot": "14",
    "sbi": "5",
    "mday": "20210628120709",
    "lat": "24.10255",
    "lng": "120.68722",
    "bemp": "9",
    "act": 1
  },
  {
    "scity": "台中市",
    "scityen": "Taichung City",
    "sna": "YouBike2.0_臺中市纖維工藝博物館",
    "sarea": "大里區",
    "ar": "勝利二路口/德芳南一街(西南側)",
    "snaen": "YouBike2.0_MOFiA, Taichung",
    "sareaen": "Dali Dist",
    "aren": "Shengli 2nd Rd. & Defang S. 1st St. Intersection (Southwest)",
    "sno": "500610012",
    "tot": "16",
    "sbi": "5",
    "mday": "20210628120709",
    "lat": "24.10036",
    "lng": "120.68707",
    "bemp": "11",
    "act": 1
  },
  {
    "scity": "台中市",
    "scityen": "Taichung City",
    "sna": "YouBike2.0_五權西文心路口",
    "sarea": "南屯區",
    "ar": "五權西路二段/文心路一段路口(東南側)",
    "snaen": "YouBike2.0_Wuquan W. Rd. / Wenxin Rd.",
    "sareaen": "Nantun Dist",
    "aren": "Sec. 2, Wuquan W. Rd. & Sec. 1, Wenxin Rd. Intersection (Southeast)",
    "sno": "500607048",
    "tot": "12",
    "sbi": "7",
    "mday": "20210628120708",
    "lat": "24.13993",
    "lng": "120.64688",
    "bemp": "5",
    "act": 1
  },
  {
    "scity": "台中市",
    "scityen": "Taichung City",
    "sna": "YouBike2.0_協和停車場",
    "sarea": "西屯區",
    "ar": "安和西路/福玄路口(西側)",
    "snaen": "YouBike2.0_Sie He Parking Lot",
    "sareaen": "Xitun Dist",
    "aren": "Anhe W. Rd. & Fuxuan Rd. Intersection (West)",
    "sno": "500606085",
    "tot": "12",
    "sbi": "5",
    "mday": "20210628120708",
    "lat": "24.17754",
    "lng": "120.62188",
    "bemp": "7",
    "act": 1
  },
  {
    "scity": "台中市",
    "scityen": "Taichung City",
    "sna": "YouBike2.0_福科國民中學",
    "sarea": "西屯區",
    "ar": "西屯路三段/玉門路370巷口(東南側)",
    "snaen": "YouBike2.0_Focus Junior High School",
    "sareaen": "Xitun Dist",
    "aren": "Sec. 3, Xitun Rd. & Ln. 370, Yumen Rd. Intersection (Southeast)",
    "sno": "500606087",
    "tot": "12",
    "sbi": "3",
    "mday": "20210628120708",
    "lat": "24.18972",
    "lng": "120.61381",
    "bemp": "9",
    "act": 1
  },
  {
    "scity": "台中市",
    "scityen": "Taichung City",
    "sna": "YouBike2.0_大仁公園",
    "sarea": "西屯區",
    "ar": "甘肅路一段/甘州六街口(西側)",
    "snaen": "YouBike2.0_Da Ren Park",
    "sareaen": "Xitun Dist",
    "aren": "Sec. 1, Gansu Rd. & Ganzhou 6th St. Intersection (West)",
    "sno": "500606090",
    "tot": "14",
    "sbi": "5",
    "mday": "20210628120708",
    "lat": "24.16569",
    "lng": "120.65929",
    "bemp": "9",
    "act": 1
  },
  {
    "scity": "台中市",
    "scityen": "Taichung City",
    "sna": "YouBike2.0_國安一號公園",
    "sarea": "西屯區",
    "ar": "國安一路51號",
    "snaen": "YouBike2.0_Guoan 1st Park",
    "sareaen": "Xitun Dist",
    "aren": "No.51, Guo'an 1st Rd.",
    "sno": "500606091",
    "tot": "14",
    "sbi": "7",
    "mday": "20210628120708",
    "lat": "24.19061",
    "lng": "120.61472",
    "bemp": "6",
    "act": 1
  },
  {
    "scity": "台中市",
    "scityen": "Taichung City",
    "sna": "YouBike2.0_三信公園",
    "sarea": "西屯區",
    "ar": "漢口路二段182號(對側人行道)",
    "snaen": "YouBike2.0_Sanxin Park",
    "sareaen": "Xitun Dist",
    "aren": "No.182, Sec. 2, Hankou Rd. (Opposite)",
    "sno": "500606092",
    "tot": "16",
    "sbi": "7",
    "mday": "20210628120708",
    "lat": "24.16623",
    "lng": "120.66372",
    "bemp": "9",
    "act": 1
  },
  {
    "scity": "台中市",
    "scityen": "Taichung City",
    "sna": "YouBike2.0_國光花市停車場",
    "sarea": "大里區",
    "ar": "德芳南路/德芳南三街口(西北側)",
    "snaen": "YouBike2.0_Guoguang Flower Market Parking Lot",
    "sareaen": "Dali Dist",
    "aren": "Defang S. Rd. & Defang S. 3rd St. Intersection (Northwest)",
    "sno": "500610008",
    "tot": "12",
    "sbi": "4",
    "mday": "20210628120709",
    "lat": "24.10377",
    "lng": "120.68377",
    "bemp": "8",
    "act": 1
  },
  {
    "scity": "台中市",
    "scityen": "Taichung City",
    "sna": "YouBike2.0_臺中車站(建國路)",
    "sarea": "中區",
    "ar": "建國路/中山路口(北側)",
    "snaen": "YouBike2.0_Taichung Station (Jianguo Rd.)",
    "sareaen": "Central Dist",
    "aren": "Jianguo Rd. & Zhongshan Rd. Intersection (North)",
    "sno": "500601004",
    "tot": "41",
    "sbi": "5",
    "mday": "20210628120808",
    "lat": "24.13746",
    "lng": "120.68435",
    "bemp": "36",
    "act": 1
  },
  {
    "scity": "台中市",
    "scityen": "Taichung City",
    "sna": "YouBike2.0_四張犁農村公園",
    "sarea": "北屯區",
    "ar": "四平路/豐樂路二段口(北側)",
    "snaen": "YouBike2.0_Sizhangli Rural Park",
    "sareaen": "Beitun Dist",
    "aren": "Siping Rd. & Sec. 2, Fengle Rd. Intersection (North)",
    "sno": "500608076",
    "tot": "10",
    "sbi": "4",
    "mday": "20210628120709",
    "lat": "24.19446",
    "lng": "120.68216",
    "bemp": "6",
    "act": 1
  },
  {
    "scity": "台中市",
    "scityen": "Taichung City",
    "sna": "YouBike2.0_舊社公園",
    "sarea": "北屯區",
    "ar": "松竹路二段/北屯路口(西側)",
    "snaen": "YouBike2.0_Jiushe Park",
    "sareaen": "Beitun Dist",
    "aren": "Sec. 2, Songzhu Rd. & Beitun Rd. Intersection (West)",
    "sno": "500608079",
    "tot": "10",
    "sbi": "6",
    "mday": "20210628120709",
    "lat": "24.18206",
    "lng": "120.7014",
    "bemp": "4",
    "act": 1
  },
  {
    "scity": "台中市",
    "scityen": "Taichung City",
    "sna": "YouBike2.0_文心國小",
    "sarea": "北屯區",
    "ar": "綏遠路二段/文心路四段口(東南側)",
    "snaen": "YouBike2.0_Wunsin Elementary School",
    "sareaen": "Beitun Dist",
    "aren": "Sec. 2, Suiyuan Rd. & Sec. 4, Wenxin Rd. Intersection (Southeast)",
    "sno": "500608088",
    "tot": "20",
    "sbi": "7",
    "mday": "20210628120709",
    "lat": "24.1732",
    "lng": "120.68178",
    "bemp": "13",
    "act": 1
  },
  {
    "scity": "台中市",
    "scityen": "Taichung City",
    "sna": "YouBike2.0_國安國小",
    "sarea": "西屯區",
    "ar": "東大路一段555號(對側人行道)",
    "snaen": "YouBike2.0_Guo An Elementary School",
    "sareaen": "Xitun Dist",
    "aren": "No.555, Sec. 1, Dongda Rd. (Opposite)",
    "sno": "500606094",
    "tot": "12",
    "sbi": "9",
    "mday": "20210628120708",
    "lat": "24.19398",
    "lng": "120.60709",
    "bemp": "3",
    "act": 1
  },
  {
    "scity": "台中市",
    "scityen": "Taichung City",
    "sna": "YouBike2.0_文心崇德路口",
    "sarea": "北屯區",
    "ar": "文心路四段/崇德路二段口(東南側)",
    "snaen": "YouBike2.0_Wenxin Rd./ Chongde Rd.",
    "sareaen": "Beitun Dist",
    "aren": "Sec. 4, Wenxin Rd. & Sec. 2, Chongde Rd. Intersection (Southeast)",
    "sno": "500608050",
    "tot": "14",
    "sbi": "11",
    "mday": "20210628120709",
    "lat": "24.17198",
    "lng": "120.68584",
    "bemp": "3",
    "act": 1
  },
  {
    "scity": "台中市",
    "scityen": "Taichung City",
    "sna": "YouBike2.0_何厝公園",
    "sarea": "西屯區",
    "ar": "四川路89號(對側人行道)",
    "snaen": "YouBike2.0_Hecuo Park",
    "sareaen": "Xitun Dist",
    "aren": "No.89, Sichuan Rd. (Opposite)",
    "sno": "500606100",
    "tot": "16",
    "sbi": "5",
    "mday": "20210628120708",
    "lat": "24.16061",
    "lng": "120.65492",
    "bemp": "11",
    "act": 1
  },
  {
    "scity": "台中市",
    "scityen": "Taichung City",
    "sna": "YouBike2.0_北新國中",
    "sarea": "北屯區",
    "ar": "遼寧路一段/僑孝街110巷口(東北側)",
    "snaen": "YouBike2.0_Pei Hsin Junior High School",
    "sareaen": "Beitun Dist",
    "aren": "Sec. 1, Liaoning Rd. & Ln. 110, Qiaoxiao St. Intersection (Northeast)",
    "sno": "500608092",
    "tot": "12",
    "sbi": "3",
    "mday": "20210628120709",
    "lat": "24.17888",
    "lng": "120.69668",
    "bemp": "9",
    "act": 1
  },
  {
    "scity": "台中市",
    "scityen": "Taichung City",
    "sna": "YouBike2.0_惠來停車場",
    "sarea": "西屯區",
    "ar": "惠來路二段/市政北一路口(西南側)",
    "snaen": "YouBike2.0_Huilai Parking Lot",
    "sareaen": "Xitun Dist",
    "aren": "Sec. 2, Huilai Rd. & Shizheng N. 1st Rd. Intersection (Southwest)",
    "sno": "500606102",
    "tot": "12",
    "sbi": "6",
    "mday": "20210628120708",
    "lat": "24.15999",
    "lng": "120.63964",
    "bemp": "6",
    "act": 1
  },
  {
    "scity": "台中市",
    "scityen": "Taichung City",
    "sna": "YouBike2.0_臺灣大道國際街口",
    "sarea": "西屯區",
    "ar": "臺灣大道四段/國際街口(東南側)",
    "snaen": "YouBike2.0_Taiwan Blvd. / Guoji St.",
    "sareaen": "Xitun Dist",
    "aren": "Sec. 4, Taiwan Blvd. & Guoji St. Intersection (Southeast)",
    "sno": "500606039",
    "tot": "14",
    "sbi": "2",
    "mday": "20210628120708",
    "lat": "24.18313",
    "lng": "120.59352",
    "bemp": "12",
    "act": 1
  },
  {
    "scity": "台中市",
    "scityen": "Taichung City",
    "sna": "YouBike2.0_柳川東中華路口",
    "sarea": "中區",
    "ar": "柳川東路四段/中華路二段口(西北側)",
    "snaen": "YouBike2.0_Liuchuan E. Rd. / Zhonghua Rd.",
    "sareaen": "Central Dist",
    "aren": "Sec. 4, Liuchuan E. Rd. & Sec. 2, Zhonghua Rd. Intersection (Northwest)",
    "sno": "500601005",
    "tot": "18",
    "sbi": "14",
    "mday": "20210628120808",
    "lat": "24.14692",
    "lng": "120.6783",
    "bemp": "4",
    "act": 1
  },
  {
    "scity": "台中市",
    "scityen": "Taichung City",
    "sna": "YouBike2.0_長福公園",
    "sarea": "東區",
    "ar": "長福路/旱溪東路一段口(東北側)",
    "snaen": "YouBike2.0_Changfu Park",
    "sareaen": "East Dist",
    "aren": "Changfu Rd. & Sec. 1, Hanxi E. Rd. Intersection (Northeast)",
    "sno": "500602044",
    "tot": "10",
    "sbi": "5",
    "mday": "20210628120808",
    "lat": "24.14402",
    "lng": "120.70205",
    "bemp": "5",
    "act": 1
  },
  {
    "scity": "台中市",
    "scityen": "Taichung City",
    "sna": "YouBike2.0_頂何厝",
    "sarea": "西屯區",
    "ar": "臺灣大道二段/東興路三段路口(西北側)",
    "snaen": "YouBike2.0_Ding He Cuo",
    "sareaen": "Xitun Dist",
    "aren": "Sec. 2, Taiwan Blvd. & Sec. 3, Dongxing Rd. Intersection (Northwest)",
    "sno": "500606077",
    "tot": "14",
    "sbi": "8",
    "mday": "20210628120708",
    "lat": "24.15924",
    "lng": "120.65532",
    "bemp": "6",
    "act": 1
  },
  {
    "scity": "台中市",
    "scityen": "Taichung City",
    "sna": "YouBike2.0_北屯區文昌國小",
    "sarea": "北屯區",
    "ar": "興安路一段/青島路四段口(東北側)",
    "snaen": "YouBike2.0_Beitun Dist. Wun Chang Elementary School",
    "sareaen": "Beitun Dist",
    "aren": "Sec. 1, Xing'an Rd. & Sec. 4, Qingdao Rd. Intersection (Northeast)",
    "sno": "500608072",
    "tot": "22",
    "sbi": "5",
    "mday": "20210628120709",
    "lat": "24.16712",
    "lng": "120.69152",
    "bemp": "17",
    "act": 1
  },
  {
    "scity": "台中市",
    "scityen": "Taichung City",
    "sna": "YouBike2.0_大隆東興路口",
    "sarea": "西屯區",
    "ar": "大隆路40號前",
    "snaen": "YouBike2.0_Dalong Rd./ Dongxing Rd.",
    "sareaen": "Xitun Dist",
    "aren": "No.40, Dalong Rd.",
    "sno": "500606083",
    "tot": "12",
    "sbi": "6",
    "mday": "20210628120708",
    "lat": "24.15573",
    "lng": "120.65409",
    "bemp": "6",
    "act": 1
  },
  {
    "scity": "台中市",
    "scityen": "Taichung City",
    "sna": "YouBike2.0_弘文高中",
    "sarea": "潭子區",
    "ar": "中山路三段221巷100號",
    "snaen": "YouBike2.0_Hong Wen High School",
    "sareaen": "Tanzi Dist",
    "aren": "No.100, Ln. 221, Sec. 3",
    "sno": "500623013",
    "tot": "30",
    "sbi": "5",
    "mday": "20210628120710",
    "lat": "24.22628",
    "lng": "120.70537",
    "bemp": "25",
    "act": 1
  },
  {
    "scity": "台中市",
    "scityen": "Taichung City",
    "sna": "YouBike2.0_永明公園",
    "sarea": "大里區",
    "ar": "永明街/永隆三街口(西北側)",
    "snaen": "YouBike2.0_Yong Ming Park",
    "sareaen": "Dali Dist",
    "aren": "Yongming St. & Yonglong 3rd St. Intersection (Northwest)",
    "sno": "500610001",
    "tot": "15",
    "sbi": "5",
    "mday": "20210628120709",
    "lat": "24.107972",
    "lng": "120.675814",
    "bemp": "10",
    "act": 1
  },
  {
    "scity": "台中市",
    "scityen": "Taichung City",
    "sna": "YouBike2.0_自治公園(公園路)",
    "sarea": "烏日區",
    "ar": "公園路36號(東南側公園)",
    "snaen": "YouBike2.0_Zi Zhi Park (Gongyuan Rd.)",
    "sareaen": "Wuri Dist",
    "aren": "No.36, Gongyuan Rd. (Park Southeast)",
    "sno": "500617006",
    "tot": "12",
    "sbi": "9",
    "mday": "20210628120710",
    "lat": "24.10187",
    "lng": "120.62811",
    "bemp": "3",
    "act": 1
  },
  {
    "scity": "台中市",
    "scityen": "Taichung City",
    "sna": "YouBike2.0_兒二公園(中山路)",
    "sarea": "烏日區",
    "ar": "中山路二段567號(西側公園)",
    "snaen": "YouBike2.0_Children's 2nd Park (Zhongshan Rd.)",
    "sareaen": "Wuri Dist",
    "aren": "No.567, Sec. 2, Zhongshan Rd. (Park West)",
    "sno": "500617012",
    "tot": "10",
    "sbi": "2",
    "mday": "20210628120710",
    "lat": "24.10603",
    "lng": "120.61691",
    "bemp": "8",
    "act": 1
  },
  {
    "scity": "台中市",
    "scityen": "Taichung City",
    "sna": "YouBike2.0_公十公園",
    "sarea": "烏日區",
    "ar": "三榮路一段399-1號(對側人行道)",
    "snaen": "YouBike2.0_Gong Shi Park",
    "sareaen": "Wuri Dist",
    "aren": "No.399-1, Sec. 1, Sanrong Rd. (Opposite)",
    "sno": "500617013",
    "tot": "11",
    "sbi": "5",
    "mday": "20210628120710",
    "lat": "24.10704",
    "lng": "120.60282",
    "bemp": "6",
    "act": 1
  },
  {
    "scity": "台中市",
    "scityen": "Taichung City",
    "sna": "YouBike2.0_臺灣大道晉武路口",
    "sarea": "沙鹿區",
    "ar": "臺灣大道七段/晉武路口(西北側)",
    "snaen": "YouBike2.0_Taiwan Blvd. / Jinwu Rd.",
    "sareaen": "Shalu Dist",
    "aren": "Sec. 7, Taiwan Blvd. & Jinwu Rd. Intersection (Northwest)",
    "sno": "500613003",
    "tot": "14",
    "sbi": "8",
    "mday": "20210628120710",
    "lat": "24.221645",
    "lng": "120.579195",
    "bemp": "6",
    "act": 1
  },
  {
    "scity": "台中市",
    "scityen": "Taichung City",
    "sna": "YouBike2.0_江川公園",
    "sarea": "南區",
    "ar": "永東街/永南街(東南側)",
    "snaen": "YouBike2.0_Jiangchuan Park",
    "sareaen": "South Dist",
    "aren": "Yongdong St. & Yongnan St. Intersection (Southeast)",
    "sno": "500604044",
    "tot": "16",
    "sbi": "10",
    "mday": "20210628120809",
    "lat": "24.12439",
    "lng": "120.67149",
    "bemp": "6",
    "act": 1
  },
  {
    "scity": "台中市",
    "scityen": "Taichung City",
    "sna": "YouBike2.0_漢口國中(漢口路)",
    "sarea": "西屯區",
    "ar": "漢口路一段54-1號前",
    "snaen": "YouBike2.0_Han Kou Junior High School (Hankou Rd.)",
    "sareaen": "Xitun Dist",
    "aren": "No.54-1, Sec. 1, Hankou Rd.",
    "sno": "500606068",
    "tot": "17",
    "sbi": "10",
    "mday": "20210628120708",
    "lat": "24.16137",
    "lng": "120.65684",
    "bemp": "7",
    "act": 1
  },
  {
    "scity": "台中市",
    "scityen": "Taichung City",
    "sna": "YouBike2.0_中興大學附屬高農(中農附旅)",
    "sarea": "東區",
    "ar": "台中路287號前",
    "snaen": "YouBike2.0_The Affiliated Taichung Senior Agricultural Vocational High School of NCHU (Internship Hotel)",
    "sareaen": "East Dist",
    "aren": "No.287, Taizhong Rd.",
    "sno": "500602005",
    "tot": "15",
    "sbi": "5",
    "mday": "20210628120808",
    "lat": "24.12688",
    "lng": "120.6844",
    "bemp": "10",
    "act": 1
  },
  {
    "scity": "台中市",
    "scityen": "Taichung City",
    "sna": "YouBike2.0_太原停車場",
    "sarea": "北屯區",
    "ar": "太原路三段/建和路一段路口(西側)",
    "snaen": "YouBike2.0_Taiyuan Parking Lot",
    "sareaen": "Beitun Dist",
    "aren": "Sec. 3, Taiyuan Rd. & Sec. 1, Jianhe Rd. Intersection (West)",
    "sno": "500608080",
    "tot": "12",
    "sbi": "4",
    "mday": "20210628120709",
    "lat": "24.16264",
    "lng": "120.72146",
    "bemp": "8",
    "act": 1
  },
  {
    "scity": "台中市",
    "scityen": "Taichung City",
    "sna": "YouBike2.0_和福公園",
    "sarea": "北屯區",
    "ar": "軍福十路/和福路口(西北側)",
    "snaen": "YouBike2.0_He Fu Park",
    "sareaen": "Beitun Dist",
    "aren": "Junfu 10th Rd. & Hefu Rd. Intersection (Northwest)",
    "sno": "500608081",
    "tot": "10",
    "sbi": "4",
    "mday": "20210628120709",
    "lat": "24.17032",
    "lng": "120.72337",
    "bemp": "6",
    "act": 1
  },
  {
    "scity": "台中市",
    "scityen": "Taichung City",
    "sna": "YouBike2.0_經補庫停車場",
    "sarea": "北屯區",
    "ar": "東山路一段381-42號對面",
    "snaen": "YouBike2.0_Jing Bu Ku Parking Lot",
    "sareaen": "Beitun Dist",
    "aren": "No.381-42, Sec. 1, Dongshan Rd.",
    "sno": "500608082",
    "tot": "12",
    "sbi": "2",
    "mday": "20210628120709",
    "lat": "24.176861",
    "lng": "120.732743",
    "bemp": "10",
    "act": 1
  },
  {
    "scity": "台中市",
    "scityen": "Taichung City",
    "sna": "YouBike2.0_廍興公園",
    "sarea": "北屯區",
    "ar": "樹孝路/太順路口(西北側)",
    "snaen": "YouBike2.0_Kuoxing Park",
    "sareaen": "Beitun Dist",
    "aren": "Shuxiao Rd. & Taishun Rd. Intersection (Northwest)",
    "sno": "500608089",
    "tot": "16",
    "sbi": "6",
    "mday": "20210628120709",
    "lat": "24.15934",
    "lng": "120.72069",
    "bemp": "10",
    "act": 1
  },
  {
    "scity": "台中市",
    "scityen": "Taichung City",
    "sna": "YouBike2.0_祥和公園",
    "sarea": "北屯區",
    "ar": "軍福七路/建和路一段口(西南側)",
    "snaen": "YouBike2.0_Xiang He Park",
    "sareaen": "Beitun Dist",
    "aren": "Junfu 7th Rd. & Sec. 1, Jianhe Rd. Intersection (Southwest)",
    "sno": "500608091",
    "tot": "10",
    "sbi": "5",
    "mday": "20210628120709",
    "lat": "24.16547",
    "lng": "120.72322",
    "bemp": "5",
    "act": 1
  },
  {
    "scity": "台中市",
    "scityen": "Taichung City",
    "sna": "YouBike2.0_臺中至善公園",
    "sarea": "西屯區",
    "ar": "至善路/逢甲路101巷口(西南側)",
    "snaen": "YouBike2.0_Taichung Zhishan Park",
    "sareaen": "Xitun Dist",
    "aren": "Zhishan Rd. & Ln. 101, Fengjia Rd. Intersection (Southwest)",
    "sno": "500606098",
    "tot": "18",
    "sbi": "11",
    "mday": "20210628120708",
    "lat": "24.17492",
    "lng": "120.64209",
    "bemp": "6",
    "act": 1
  },
  {
    "scity": "台中市",
    "scityen": "Taichung City",
    "sna": "YouBike2.0_北屯兒童公園",
    "sarea": "北屯區",
    "ar": "北平路四段/興安路一段口(東南側)",
    "snaen": "YouBike2.0_Beitun Children's park",
    "sareaen": "Beitun Dist",
    "aren": "Sec. 4, Beiping Rd. & Sec. 1, Xing'an Rd. Intersection (Southeast)",
    "sno": "500608071",
    "tot": "14",
    "sbi": "7",
    "mday": "20210628120709",
    "lat": "24.17018",
    "lng": "120.69426",
    "bemp": "7",
    "act": 1
  },
  {
    "scity": "台中市",
    "scityen": "Taichung City",
    "sna": "YouBike2.0_市政公園停車場",
    "sarea": "西屯區",
    "ar": "市政北五路/惠中路一段口(東南側)",
    "snaen": "YouBike2.0_City Hall Garden Parking",
    "sareaen": "Xitun Dist",
    "aren": "Shizheng N. 5th Rd. & Sec. 1, Huizhong Rd. Intersection (Southeast)",
    "sno": "500606082",
    "tot": "16",
    "sbi": "10",
    "mday": "20210628120708",
    "lat": "24.16099",
    "lng": "120.64453",
    "bemp": "6",
    "act": 1
  },
  {
    "scity": "台中市",
    "scityen": "Taichung City",
    "sna": "YouBike2.0_三光太原路口",
    "sarea": "北屯區",
    "ar": "三光巷/太原路三段口(東南側)",
    "snaen": "YouBike2.0_Sanguang Rd. / Taiyuan Rd.",
    "sareaen": "Beitun Dist",
    "aren": "Sanguang Ln. & Sec. 3, Taiyuan Rd. Intersection (Southeast)",
    "sno": "500608073",
    "tot": "16",
    "sbi": "6",
    "mday": "20210628120709",
    "lat": "24.16474",
    "lng": "120.6967",
    "bemp": "10",
    "act": 1
  },
  {
    "scity": "台中市",
    "scityen": "Taichung City",
    "sna": "YouBike2.0_臺中國家歌劇院",
    "sarea": "西屯區",
    "ar": "惠民路/市政北六路口(西南側)",
    "snaen": "YouBike2.0_National Taichung Theater",
    "sareaen": "Xitun Dist",
    "aren": "Huimin Rd. & Shizheng N. 6th Rd. Intersection (Southwest)",
    "sno": "500606084",
    "tot": "20",
    "sbi": "14",
    "mday": "20210628120708",
    "lat": "24.16407",
    "lng": "120.64012",
    "bemp": "6",
    "act": 1
  },
  {
    "scity": "台中市",
    "scityen": "Taichung City",
    "sna": "YouBike2.0_東光國小",
    "sarea": "北屯區",
    "ar": "東山路一段91巷/東山路一段123巷31弄口(西北側)",
    "snaen": "YouBike2.0_Dung-Guang Elementary School",
    "sareaen": "Beitun Dist",
    "aren": "Ln. 91, Sec. 1, Dongguang Rd. & Aly. 31, Ln. 91, Sec. 1, Dongguang Rd. Intersection (Northwest)",
    "sno": "500608074",
    "tot": "12",
    "sbi": "6",
    "mday": "20210628120709",
    "lat": "24.17178",
    "lng": "120.70236",
    "bemp": "6",
    "act": 1
  },
  {
    "scity": "台中市",
    "scityen": "Taichung City",
    "sna": "YouBike2.0_北屯區公所",
    "sarea": "北屯區",
    "ar": "崇德路三段10號",
    "snaen": "YouBike2.0_Beitun District Office",
    "sareaen": "Beitun Dist",
    "aren": "No.10, Sec. 3, Chongde Rd.",
    "sno": "500608075",
    "tot": "10",
    "sbi": "3",
    "mday": "20210628120709",
    "lat": "24.18299",
    "lng": "120.68631",
    "bemp": "7",
    "act": 1
  },
  {
    "scity": "台中市",
    "scityen": "Taichung City",
    "sna": "YouBike2.0_四張犁圖書館",
    "sarea": "北屯區",
    "ar": "豐樂路二段/豐樂一街口(西北側)",
    "snaen": "YouBike2.0_Sizhengli Library",
    "sareaen": "Beitun Dist",
    "aren": "Sec. 2, Fengle Rd. & Fengle 1st St. Intersection (Northwest)",
    "sno": "500608077",
    "tot": "12",
    "sbi": "4",
    "mday": "20210628120709",
    "lat": "24.1947",
    "lng": "120.68049",
    "bemp": "8",
    "act": 1
  },
  {
    "scity": "台中市",
    "scityen": "Taichung City",
    "sna": "YouBike2.0_新都生態公園",
    "sarea": "北屯區",
    "ar": "軍福十五路20號(對側人行道)",
    "snaen": "YouBike2.0_Sin Dou Ecology Park",
    "sareaen": "Beitun Dist",
    "aren": "No.20, Junfu 15th Rd. (Opposite)",
    "sno": "500608078",
    "tot": "12",
    "sbi": "4",
    "mday": "20210628120709",
    "lat": "24.1738",
    "lng": "120.73008",
    "bemp": "8",
    "act": 1
  },
  {
    "scity": "台中市",
    "scityen": "Taichung City",
    "sna": "YouBike2.0_西大墩公園",
    "sarea": "西屯區",
    "ar": "福科一街/福科二路口(西北側)",
    "snaen": "YouBike2.0_West Da Dun Park",
    "sareaen": "Xitun Dist",
    "aren": "Fuke 1st St. & Fuke 2nd Rd. Intersection (Northwest)",
    "sno": "500606086",
    "tot": "14",
    "sbi": "11",
    "mday": "20210628120708",
    "lat": "24.17692",
    "lng": "120.63577",
    "bemp": "3",
    "act": 1
  },
  {
    "scity": "台中市",
    "scityen": "Taichung City",
    "sna": "YouBike2.0_潮洋環保公園",
    "sarea": "西屯區",
    "ar": "朝貴路/朝馬七街(西南側)",
    "snaen": "YouBike2.0_Chao Yang Environmental Park",
    "sareaen": "Xitun Dist",
    "aren": "Chaogui Rd. & Chaoma 7th St. Intersection (Southwest)",
    "sno": "500606088",
    "tot": "13",
    "sbi": "3",
    "mday": "20210628120708",
    "lat": "24.16591",
    "lng": "120.63341",
    "bemp": "10",
    "act": 1
  },
  {
    "scity": "台中市",
    "scityen": "Taichung City",
    "sna": "YouBike2.0_豐功停車場",
    "sarea": "南屯區",
    "ar": "文心南三路/向心南路口(東北側)",
    "snaen": "YouBike2.0_Fenggong Parking Lot",
    "sareaen": "Nantun Dist",
    "aren": "Wenxin S. 3rd Rd. & Xiangxin S. Rd. Intersection (Northeast)",
    "sno": "500607044",
    "tot": "12",
    "sbi": "5",
    "mday": "20210628120708",
    "lat": "24.133454",
    "lng": "120.644307",
    "bemp": "7",
    "act": 1
  },
  {
    "scity": "台中市",
    "scityen": "Taichung City",
    "sna": "YouBike2.0_民興公園",
    "sarea": "南區",
    "ar": "建國北路二段100巷/建國北路二段口",
    "snaen": "YouBike2.0_Minxing Park",
    "sareaen": "South Dist",
    "aren": "Ln. 100, Sec. 2, Jianguo N. Rd. & Sec. 2, Jianguo N. Rd. Intersection",
    "sno": "500604049",
    "tot": "10",
    "sbi": "3",
    "mday": "20210628120809",
    "lat": "24.12862",
    "lng": "120.66456",
    "bemp": "7",
    "act": 1
  },
  {
    "scity": "台中市",
    "scityen": "Taichung City",
    "sna": "YouBike2.0_中興大學附屬高農",
    "sarea": "東區",
    "ar": "台中路283號前",
    "snaen": "YouBike2.0_The Affiliated Taichung Senior Agricultural Vocational High School of NCHU",
    "sareaen": "East Dist",
    "aren": "No.283, Taizhong Rd.",
    "sno": "500602043",
    "tot": "20",
    "sbi": "2",
    "mday": "20210628120808",
    "lat": "24.12861",
    "lng": "120.68491",
    "bemp": "18",
    "act": 1
  },
  {
    "scity": "台中市",
    "scityen": "Taichung City",
    "sna": "YouBike2.0_秀泰廣場",
    "sarea": "東區",
    "ar": "南京路/自由三街口(東北側)",
    "snaen": "YouBike2.0_Show Time Square",
    "sareaen": "East Dist",
    "aren": "Nanjing Rd. & Ziyou 3rd St. Intersection (Northeast)",
    "sno": "500602046",
    "tot": "12",
    "sbi": "6",
    "mday": "20210628120808",
    "lat": "24.1401",
    "lng": "120.6913",
    "bemp": "6",
    "act": 1
  },
  {
    "scity": "台中市",
    "scityen": "Taichung City",
    "sna": "YouBike2.0_新光/遠百",
    "sarea": "西屯區",
    "ar": "臺灣大道三段/惠來路二段(西北側)",
    "snaen": "YouBike2.0_Mitsukoshi Shin Kong / Top City Dept. Store",
    "sareaen": "Xitun Dist",
    "aren": "Sec. 3, Taiwan Blvd. & Sec. 2, Huilai Rd. Intersection (Northwest)",
    "sno": "500606078",
    "tot": "30",
    "sbi": "7",
    "mday": "20210628120708",
    "lat": "24.16614",
    "lng": "120.64292",
    "bemp": "23",
    "act": 1
  },
  {
    "scity": "台中市",
    "scityen": "Taichung City",
    "sna": "YouBike2.0_豐富公園",
    "sarea": "南屯區",
    "ar": "東興路一段/文心南五路一段口(東南側)",
    "snaen": "YouBike2.0_Feng Fu Park",
    "sareaen": "Nantun Dist",
    "aren": "Sec. 1, Dongxing Rd. & Sec. 1, Wenxin S. 5th Rd. Intersection (Southeast)",
    "sno": "500607053",
    "tot": "11",
    "sbi": "4",
    "mday": "20210628120709",
    "lat": "24.13166",
    "lng": "120.65325",
    "bemp": "7",
    "act": 1
  },
  {
    "scity": "台中市",
    "scityen": "Taichung City",
    "sna": "YouBike2.0_臺中女中",
    "sarea": "西區",
    "ar": "自由路一段/康樂街口(西北側)",
    "snaen": "YouBike2.0_National Taichung Girls' Senior High School",
    "sareaen": "West Dist",
    "aren": "Sec. 1, Ziyou Rd. & Kangle St. Intersection (Northwest)",
    "sno": "500603044",
    "tot": "20",
    "sbi": "6",
    "mday": "20210628120809",
    "lat": "24.13557",
    "lng": "120.67733",
    "bemp": "14",
    "act": 1
  },
  {
    "scity": "台中市",
    "scityen": "Taichung City",
    "sna": "YouBike2.0_秋紅谷",
    "sarea": "西屯區",
    "ar": "朝富路/朝馬路口(東北側)",
    "snaen": "YouBike2.0_Maple Valley Park",
    "sareaen": "Xitun Dist",
    "aren": "Chaofu Rd & Chaoma Rd. Intersection (Northeast)",
    "sno": "500606075",
    "tot": "26",
    "sbi": "11",
    "mday": "20210628120708",
    "lat": "24.16789",
    "lng": "120.63889",
    "bemp": "15",
    "act": 1
  },
  {
    "scity": "台中市",
    "scityen": "Taichung City",
    "sna": "YouBike2.0_市政府(文心樓)",
    "sarea": "西屯區",
    "ar": "文心路二段/大墩二十街口(西南側)",
    "snaen": "YouBike2.0_Taichung City Government (Wenxin Building)",
    "sareaen": "Xitun Dist",
    "aren": "Sec. 2, Wenxin Rd. & Dadun 20th St. Intersection (Southwest)",
    "sno": "500606079",
    "tot": "20",
    "sbi": "4",
    "mday": "20210628120708",
    "lat": "24.16143",
    "lng": "120.6487",
    "bemp": "16",
    "act": 1
  },
  {
    "scity": "台中市",
    "scityen": "Taichung City",
    "sna": "YouBike2.0_土庫公園",
    "sarea": "西區",
    "ar": "五權五街/五權西六街136巷口(西南側)",
    "snaen": "YouBike2.0_Tu Ku Park",
    "sareaen": "West Dist",
    "aren": "Wuquan 5th St. & Ln. 136, Wuquan W. 6th St. Intersection (Southwest)",
    "sno": "500603052",
    "tot": "16",
    "sbi": "3",
    "mday": "20210628120809",
    "lat": "24.1364",
    "lng": "120.65788",
    "bemp": "13",
    "act": 1
  },
  {
    "scity": "台中市",
    "scityen": "Taichung City",
    "sna": "YouBike2.0_北區國民運動中心",
    "sarea": "北區",
    "ar": "崇德路一段55號",
    "snaen": "YouBike2.0_North District Civil Sport Center",
    "sareaen": "North Dist",
    "aren": "No.55, Sec. 1, Chongde Rd.",
    "sno": "500605045",
    "tot": "12",
    "sbi": "1",
    "mday": "20210628120809",
    "lat": "24.15716",
    "lng": "120.68484",
    "bemp": "11",
    "act": 1
  },
  {
    "scity": "台中市",
    "scityen": "Taichung City",
    "sna": "YouBike2.0_大忠公園",
    "sarea": "西區",
    "ar": "精誠三十街/大忠街口(東北側)",
    "snaen": "YouBike2.0_Da Zhong Park",
    "sareaen": "West Dist",
    "aren": "Jingcheng 30th St. & Dazhong St. Intersection (Northeast)",
    "sno": "500603043",
    "tot": "14",
    "sbi": "5",
    "mday": "20210628120808",
    "lat": "24.14338",
    "lng": "120.6562",
    "bemp": "9",
    "act": 1
  },
  {
    "scity": "台中市",
    "scityen": "Taichung City",
    "sna": "YouBike2.0_櫻花棒球場",
    "sarea": "西屯區",
    "ar": "櫻花路/洛陽路口(西側)",
    "snaen": "YouBike2.0_Cherry Blossoms Baseball Field",
    "sareaen": "Xitun Dist",
    "aren": "Yinghua Rd. & Luoyang Rd. Intersection (West)",
    "sno": "500606076",
    "tot": "20",
    "sbi": "12",
    "mday": "20210628120708",
    "lat": "24.16867",
    "lng": "120.6531",
    "bemp": "8",
    "act": 1
  },
  {
    "scity": "台中市",
    "scityen": "Taichung City",
    "sna": "YouBike2.0_青海逢甲路口",
    "sarea": "西屯區",
    "ar": "青海路二段/逢甲路口(西北側)",
    "snaen": "YouBike2.0_Qinghai Rd. / Fengjia Rd.",
    "sareaen": "Xitun Dist",
    "aren": "Sec. 2, Qinghai Rd. & Fengjia Rd. Intersection (Northwest)",
    "sno": "500606080",
    "tot": "18",
    "sbi": "4",
    "mday": "20210628120708",
    "lat": "24.17465",
    "lng": "120.63923",
    "bemp": "14",
    "act": 1
  },
  {
    "scity": "台中市",
    "scityen": "Taichung City",
    "sna": "YouBike2.0_上石公園",
    "sarea": "西屯區",
    "ar": "西屯路二段/上石北五巷口(西南側)",
    "snaen": "YouBike2.0_Shang Shi Park",
    "sareaen": "Xitun Dist",
    "aren": "Sec. 2, Xitun Rd. & Shangshi N. 5th Ln., Sec. 2, Xitun Rd. Intersection (Southwest)",
    "sno": "500606081",
    "tot": "18",
    "sbi": "6",
    "mday": "20210628120708",
    "lat": "24.17284",
    "lng": "120.64493",
    "bemp": "12",
    "act": 1
  },
  {
    "scity": "台中市",
    "scityen": "Taichung City",
    "sna": "YouBike2.0_民生英才路口",
    "sarea": "西區",
    "ar": "民生路/英才路口(西北側)",
    "snaen": "YouBike2.0_Minsheng Rd./Yingcai Rd.",
    "sareaen": "West Dist",
    "aren": "Minsheng Rd. & Yingcai Rd. Intersection (Northwest)",
    "sno": "500603051",
    "tot": "20",
    "sbi": "1",
    "mday": "20210628120809",
    "lat": "24.14435",
    "lng": "120.6648",
    "bemp": "19",
    "act": 1
  },
  {
    "scity": "台中市",
    "scityen": "Taichung City",
    "sna": "YouBike2.0_國立中興大學(中興湖)",
    "sarea": "南區",
    "ar": "中興路/弘道路口(國立中興大學(中興湖))",
    "snaen": "YouBike2.0_National Chung Hsing University( Chung Hsing lake)",
    "sareaen": "South Dist",
    "aren": "Zhongxing Rd. & Hongdao Rd. Intersection (National Chung Hsing University( Chung Hsing lake))",
    "sno": "500604055",
    "tot": "26",
    "sbi": "11",
    "mday": "20210628120809",
    "lat": "24.12043",
    "lng": "120.67369",
    "bemp": "15",
    "act": 1
  },
  {
    "scity": "台中市",
    "scityen": "Taichung City",
    "sna": "YouBike2.0_美術園道",
    "sarea": "西區",
    "ar": "五權七街/五權西四街口(東南側)",
    "snaen": "YouBike2.0_Art Museum Parkway",
    "sareaen": "West Dist",
    "aren": "Wuquan 7th St. & Wuquan W. 4th St. Intersection (Southeast)",
    "sno": "500603053",
    "tot": "10",
    "sbi": "6",
    "mday": "20210628120809",
    "lat": "24.13508",
    "lng": "120.66293",
    "bemp": "4",
    "act": 1
  },
  {
    "scity": "台中市",
    "scityen": "Taichung City",
    "sna": "YouBike2.0_四育國中",
    "sarea": "南區",
    "ar": "復興路二段152號前",
    "snaen": "YouBike2.0_Sz Yu Junior High School",
    "sareaen": "South Dist",
    "aren": "No.152, Sec. 2, Fuxing Rd.",
    "sno": "500604057",
    "tot": "16",
    "sbi": "6",
    "mday": "20210628120809",
    "lat": "24.126",
    "lng": "120.66491",
    "bemp": "10",
    "act": 1
  },
  {
    "scity": "台中市",
    "scityen": "Taichung City",
    "sna": "YouBike2.0_忠明南復興路口",
    "sarea": "南區",
    "ar": "忠明南路/復興路二段口(西北側)",
    "snaen": "YouBike2.0_Zhongming S. Rd. / Fuxing Rd.",
    "sareaen": "South Dist",
    "aren": "Zhongming S. Rd. & Sec. 2, Fuxing Rd. Intersection (Northwest)",
    "sno": "500604058",
    "tot": "16",
    "sbi": "11",
    "mday": "20210628120809",
    "lat": "24.12172",
    "lng": "120.66129",
    "bemp": "5",
    "act": 1
  },
  {
    "scity": "台中市",
    "scityen": "Taichung City",
    "sna": "YouBike2.0_崇倫公園",
    "sarea": "南區",
    "ar": "南屯路一段/美村路二段口(南側)",
    "snaen": "YouBike2.0_Chung Luen Park",
    "sareaen": "South Dist",
    "aren": "Sec. 1, Nantun Rd. & Sec. 2, Meicun Rd. Intersection (South)",
    "sno": "500604045",
    "tot": "14",
    "sbi": "7",
    "mday": "20210628120809",
    "lat": "24.13229",
    "lng": "120.66114",
    "bemp": "7",
    "act": 1
  },
  {
    "scity": "台中市",
    "scityen": "Taichung City",
    "sna": "YouBike2.0_永興公園",
    "sarea": "南區",
    "ar": "工學路/工學一街口(西南側)",
    "snaen": "YouBike2.0_Yongxing Park",
    "sareaen": "South Dist",
    "aren": "Gongxue Rd. & Gongxue 1st St. Intersection (Southwest)",
    "sno": "500604047",
    "tot": "12",
    "sbi": "4",
    "mday": "20210628120809",
    "lat": "24.11674",
    "lng": "120.66488",
    "bemp": "8",
    "act": 1
  },
  {
    "scity": "台中市",
    "scityen": "Taichung City",
    "sna": "YouBike2.0_樹德停車場",
    "sarea": "南區",
    "ar": "德富路146巷/德吉街口(東北側)",
    "snaen": "YouBike2.0_Shude Parking Lot",
    "sareaen": "South Dist",
    "aren": "Ln. 146, Defu Rd. & Deji St. Intersection (Northeast)",
    "sno": "500604048",
    "tot": "20",
    "sbi": "3",
    "mday": "20210628120809",
    "lat": "24.11851",
    "lng": "120.65435",
    "bemp": "17",
    "act": 1
  },
  {
    "scity": "台中市",
    "scityen": "Taichung City",
    "sna": "YouBike2.0_積善公園",
    "sarea": "大里區",
    "ar": "興大路/大明路口(西北側)",
    "snaen": "YouBike2.0_Jishan Park",
    "sareaen": "Dali Dist",
    "aren": "Xingda Rd & Daming Rd. Intersection (Northwest)",
    "sno": "500610020",
    "tot": "12",
    "sbi": "6",
    "mday": "20210628120709",
    "lat": "24.1149",
    "lng": "120.67153",
    "bemp": "6",
    "act": 1
  },
  {
    "scity": "台中市",
    "scityen": "Taichung City",
    "sna": "YouBike2.0_復興停車場",
    "sarea": "南區",
    "ar": "復興路三段/國光路口(西側)",
    "snaen": "YouBike2.0_Fuxing Parking Lot",
    "sareaen": "South Dist",
    "aren": "Sec. 3, Fuxing Rd. & Guoguang Rd. Intersection (West)",
    "sno": "500604050",
    "tot": "18",
    "sbi": "5",
    "mday": "20210628120809",
    "lat": "24.13175",
    "lng": "120.67634",
    "bemp": "13",
    "act": 1
  },
  {
    "scity": "台中市",
    "scityen": "Taichung City",
    "sna": "YouBike2.0_健康公園附設停車場",
    "sarea": "南區",
    "ar": "五權南路/五權南路380巷口(西北側)",
    "snaen": "YouBike2.0_JianKang Park Parking Lot",
    "sareaen": "South Dist",
    "aren": "Wuquan S. Rd. & Ln. 380, Wuquan S. Rd. Intersecton (Northwest)",
    "sno": "500604051",
    "tot": "12",
    "sbi": "4",
    "mday": "20210628120809",
    "lat": "24.12096",
    "lng": "120.66988",
    "bemp": "8",
    "act": 1
  },
  {
    "scity": "台中市",
    "scityen": "Taichung City",
    "sna": "YouBike2.0_高工南和路口",
    "sarea": "南區",
    "ar": "高工路/南和路口(北側)",
    "snaen": "YouBike2.0_Gaogong Rd. / Nanhe Rd.",
    "sareaen": "South Dist",
    "aren": "Gaogong Rd. & Nanhe Rd. Intersection (North)",
    "sno": "500604052",
    "tot": "14",
    "sbi": "4",
    "mday": "20210628120809",
    "lat": "24.11456",
    "lng": "120.66834",
    "bemp": "10",
    "act": 1
  },
  {
    "scity": "台中市",
    "scityen": "Taichung City",
    "sna": "YouBike2.0_永隆永隆七街101巷口",
    "sarea": "大里區",
    "ar": "永隆七街/永隆七街101巷口(西北側)",
    "snaen": "YouBike2.0_YongLong Rd. / Ln.101 YongLong 7th St.",
    "sareaen": "Dali Dist",
    "aren": "Yonglong 7th St. & Ln. 101, Yonglong 7th St. Intersection (Northwest)",
    "sno": "500610003",
    "tot": "13",
    "sbi": "5",
    "mday": "20210628120709",
    "lat": "24.113568",
    "lng": "120.675713",
    "bemp": "8",
    "act": 1
  },
  {
    "scity": "台中市",
    "scityen": "Taichung City",
    "sna": "YouBike2.0_大明兒童公園(大明路)",
    "sarea": "大里區",
    "ar": "大明路/大明路366巷口(西北側)",
    "snaen": "YouBike2.0_Da Ming Children's Park (Da Ming Rd.)",
    "sareaen": "Dali Dist",
    "aren": "Da Ming Children's Park (Da Ming Rd.)",
    "sno": "500610004",
    "tot": "15",
    "sbi": "6",
    "mday": "20210628120709",
    "lat": "24.115046",
    "lng": "120.678402",
    "bemp": "9",
    "act": 1
  },
  {
    "scity": "台中市",
    "scityen": "Taichung City",
    "sna": "YouBike2.0_國光公園(興大南街)",
    "sarea": "大里區",
    "ar": "興大南街/永隆路口(東北側)",
    "snaen": "YouBike2.0_Guoguang Park (Xingda S. St.)",
    "sareaen": "Dali Dist",
    "aren": "Xingda S. St. & Yonglong Rd. Intersection (Northeast)",
    "sno": "500610005",
    "tot": "16",
    "sbi": "8",
    "mday": "20210628120709",
    "lat": "24.116506",
    "lng": "120.676302",
    "bemp": "8",
    "act": 1
  },
  {
    "scity": "台中市",
    "scityen": "Taichung City",
    "sna": "YouBike2.0_日新公園",
    "sarea": "大里區",
    "ar": "日新路383號旁公園",
    "snaen": "YouBike2.0_R Shin Park",
    "sareaen": "Dali Dist",
    "aren": "No.383, Rixin Roadside Park",
    "sno": "500610019",
    "tot": "12",
    "sbi": "5",
    "mday": "20210628120709",
    "lat": "24.11872",
    "lng": "120.69236",
    "bemp": "7",
    "act": 1
  },
  {
    "scity": "台中市",
    "scityen": "Taichung City",
    "sna": "YouBike2.0_五權西忠明南路口",
    "sarea": "西區",
    "ar": "五權西路一段/忠明南路口(西南側)",
    "snaen": "YouBike2.0_Wuquan W. Rd. / Zhongming S. Rd.",
    "sareaen": "West Dist",
    "aren": "Sec. 1, Wuquan W. Rd. & Zhongming S. Rd. Intersection (Southwest)",
    "sno": "500603046",
    "tot": "18",
    "sbi": "5",
    "mday": "20210628120809",
    "lat": "24.13977",
    "lng": "120.65708",
    "bemp": "13",
    "act": 1
  },
  {
    "scity": "台中市",
    "scityen": "Taichung City",
    "sna": "YouBike2.0_樂利公園",
    "sarea": "東區",
    "ar": "十甲東路/東英六街口(東南側)",
    "snaen": "YouBike2.0_Leli Park",
    "sareaen": "East Dist",
    "aren": "Shijia E. Rd. & Dongying 6th St. Intersection (Southeast)",
    "sno": "500602047",
    "tot": "12",
    "sbi": "1",
    "mday": "20210628120808",
    "lat": "24.13885",
    "lng": "120.70752",
    "bemp": "11",
    "act": 1
  },
  {
    "scity": "台中市",
    "scityen": "Taichung City",
    "sna": "YouBike2.0_崇光國小",
    "sarea": "大里區",
    "ar": "益民路二段/益民路二段371巷口(東側)",
    "snaen": "YouBike2.0_Chong-Guang Elementary School",
    "sareaen": "Dali Dist",
    "aren": "Sec. 2, Yimin Rd. & Ln. 371, Sec. 2, Yimin Rd. Intersection (East)",
    "sno": "500610024",
    "tot": "12",
    "sbi": "4",
    "mday": "20210628120709",
    "lat": "24.11477",
    "lng": "120.68399",
    "bemp": "8",
    "act": 1
  },
  {
    "scity": "台中市",
    "scityen": "Taichung City",
    "sna": "YouBike2.0_樂成宮",
    "sarea": "東區",
    "ar": "東光路/旱溪街口(東北側)",
    "snaen": "YouBike2.0_Le Cheng Temple",
    "sareaen": "East Dist",
    "aren": "Dongguang Rd. & Hanxi St. Intersection (Northeast)",
    "sno": "500602048",
    "tot": "10",
    "sbi": "5",
    "mday": "20210628120808",
    "lat": "24.14059",
    "lng": "120.69674",
    "bemp": "5",
    "act": 1
  },
  {
    "scity": "台中市",
    "scityen": "Taichung City",
    "sna": "YouBike2.0_新建國市場(5號門)",
    "sarea": "東區",
    "ar": "進德路/建成路口(東北側)",
    "snaen": "YouBike2.0_New Jianguo Market (Gate 5)",
    "sareaen": "East Dist",
    "aren": "Jinde Rd. & Jiancheng Rd. Intersection (Northeast)",
    "sno": "500602049",
    "tot": "12",
    "sbi": "6",
    "mday": "20210628120808",
    "lat": "24.13401",
    "lng": "120.69385",
    "bemp": "6",
    "act": 1
  },
  {
    "scity": "台中市",
    "scityen": "Taichung City",
    "sna": "YouBike2.0_世斌公園",
    "sarea": "西屯區",
    "ar": "永福路/福安路22巷口(東北側)",
    "snaen": "YouBike2.0_Shih Bin Park",
    "sareaen": "Xitun Dist",
    "aren": "Yongfu Rd. & Ln. 22, Fu'an Rd. Intersection (Northeast)",
    "sno": "500606089",
    "tot": "14",
    "sbi": "4",
    "mday": "20210628120708",
    "lat": "24.18219",
    "lng": "120.61962",
    "bemp": "10",
    "act": 1
  },
  {
    "scity": "台中市",
    "scityen": "Taichung City",
    "sna": "YouBike2.0_建成樂業路口",
    "sarea": "東區",
    "ar": "建成路356號(對側人行道)",
    "snaen": "YouBike2.0_Jiancheng Rd./Leye Rd.",
    "sareaen": "East Dist",
    "aren": "No.356, Jiancheng Rd. (Opposite)",
    "sno": "500602050",
    "tot": "16",
    "sbi": "2",
    "mday": "20210628120808",
    "lat": "24.13858",
    "lng": "120.69669",
    "bemp": "14",
    "act": 1
  },
  {
    "scity": "台中市",
    "scityen": "Taichung City",
    "sna": "YouBike2.0_雙十育樂街口",
    "sarea": "北區",
    "ar": "雙十路二段/育樂街口(南側)",
    "snaen": "YouBike2.0_Shuangshi Rd. / Yule St.",
    "sareaen": "North Dist",
    "aren": "Sec. 2, Shuangshi Rd. & Yule St. Intersection (South)",
    "sno": "500605043",
    "tot": "10",
    "sbi": "3",
    "mday": "20210628120809",
    "lat": "24.15778",
    "lng": "120.69097",
    "bemp": "7",
    "act": 1
  },
  {
    "scity": "台中市",
    "scityen": "Taichung City",
    "sna": "YouBike2.0_中山地政事務所",
    "sarea": "西區",
    "ar": "三民路一段/三民路一段156巷口(東北側)",
    "snaen": "YouBike2.0_Zhongshan Land Office",
    "sareaen": "West Dist",
    "aren": "Sec. 1, Sanmin Rd. & Ln. 156, Sec. 1, Sanmin Rd. Intersection (Northeast)",
    "sno": "500603042",
    "tot": "18",
    "sbi": "9",
    "mday": "20210628120808",
    "lat": "24.13654",
    "lng": "120.6737",
    "bemp": "9",
    "act": 1
  },
  {
    "scity": "台中市",
    "scityen": "Taichung City",
    "sna": "YouBike2.0_山西公園",
    "sarea": "北區",
    "ar": "山西路二段/北平路二段口(東南側)",
    "snaen": "YouBike2.0_Shanxi Park",
    "sareaen": "North Dist",
    "aren": "Sec. 2, Shanxi Rd & Sec. 2, Beiping Rd. Intersection (Southeast)",
    "sno": "500605046",
    "tot": "14",
    "sbi": "9",
    "mday": "20210628120809",
    "lat": "24.17106",
    "lng": "120.6759",
    "bemp": "5",
    "act": 1
  },
  {
    "scity": "台中市",
    "scityen": "Taichung City",
    "sna": "YouBike2.0_國立中興大學",
    "sarea": "南區",
    "ar": "興大路/仁德街口",
    "snaen": "YouBike2.0_National Chung Hsing University",
    "sareaen": "South Dist",
    "aren": "Xingda Rd. & Rende St. Intersection",
    "sno": "500604046",
    "tot": "20",
    "sbi": "8",
    "mday": "20210628120809",
    "lat": "24.12391",
    "lng": "120.67719",
    "bemp": "12",
    "act": 1
  },
  {
    "scity": "台中市",
    "scityen": "Taichung City",
    "sna": "YouBike2.0_大智國小",
    "sarea": "東區",
    "ar": "建德街/大智路口(東南側)",
    "snaen": "YouBike2.0_Dazhi Elementary School",
    "sareaen": "East Dist",
    "aren": "Jiande St. & Dazhi Rd. Intersection (Southeast)",
    "sno": "500602041",
    "tot": "14",
    "sbi": "2",
    "mday": "20210628120808",
    "lat": "24.12956",
    "lng": "120.69059",
    "bemp": "12",
    "act": 1
  },
  {
    "scity": "台中市",
    "scityen": "Taichung City",
    "sna": "YouBike2.0_東峰公園(仁和路)",
    "sarea": "東區",
    "ar": "仁和路/立德東街口(西側)",
    "snaen": "YouBike2.0_Dongfeng Park (Renhe Rd.)",
    "sareaen": "East Dist",
    "aren": "Renhe Rd. & Lide E. St. Intersection (West)",
    "sno": "500602042",
    "tot": "10",
    "sbi": "4",
    "mday": "20210628120808",
    "lat": "24.12627",
    "lng": "120.68827",
    "bemp": "6",
    "act": 1
  },
  {
    "scity": "台中市",
    "scityen": "Taichung City",
    "sna": "YouBike2.0_東光園振興路口",
    "sarea": "東區",
    "ar": "東光園路/振興路口(西北側)",
    "snaen": "YouBike2.0_Dongguangyuan Rd. / Zhenxing Rd.",
    "sareaen": "East Dist",
    "aren": "Dongguangyuan Rd. & Zhenxing Rd. Intersection (Northwest)",
    "sno": "500602045",
    "tot": "16",
    "sbi": "5",
    "mday": "20210628120808",
    "lat": "24.13333",
    "lng": "120.69708",
    "bemp": "11",
    "act": 1
  },
  {
    "scity": "台中市",
    "scityen": "Taichung City",
    "sna": "YouBike2.0_臺中州廳",
    "sarea": "西區",
    "ar": "市府路/民權路口(西南側)",
    "snaen": "YouBike2.0_Taichung Prefectural Hall",
    "sareaen": "West Dist",
    "aren": "Shifu Rd. & Minquan Rd. Intersection (Southwest)",
    "sno": "500603047",
    "tot": "18",
    "sbi": "7",
    "mday": "20210628120809",
    "lat": "24.13829",
    "lng": "120.67875",
    "bemp": "9",
    "act": 1
  },
  {
    "scity": "台中市",
    "scityen": "Taichung City",
    "sna": "YouBike2.0_大買家國光店",
    "sarea": "大里區",
    "ar": "國光路二段710號",
    "snaen": "YouBike2.0_Save & Safe Guoguang Store",
    "sareaen": "Dali Dist",
    "aren": "No.710, Sec. 2, Guoguang Rd.",
    "sno": "500610017",
    "tot": "12",
    "sbi": "3",
    "mday": "20210628120709",
    "lat": "24.115824",
    "lng": "120.67951",
    "bemp": "9",
    "act": 1
  },
  {
    "scity": "台中市",
    "scityen": "Taichung City",
    "sna": "YouBike2.0_樹義園道",
    "sarea": "南區",
    "ar": "工學北路349號(對側園道)",
    "snaen": "YouBike2.0_Shuyi Parkway",
    "sareaen": "South Dist",
    "aren": "No.349, Gongxue N. Rd. (Opposite)",
    "sno": "500604041",
    "tot": "18",
    "sbi": "6",
    "mday": "20210628120809",
    "lat": "24.11533",
    "lng": "120.65652",
    "bemp": "12",
    "act": 1
  },
  {
    "scity": "台中市",
    "scityen": "Taichung City",
    "sna": "YouBike2.0_大德公園",
    "sarea": "北屯區",
    "ar": "平德路/平德路1巷口(西北側)",
    "snaen": "YouBike2.0_Dade Park",
    "sareaen": "Beitun Dist",
    "aren": "Pingde Rd. & Ln. 1, Pingde Rd. Intersection (Northwest)",
    "sno": "500608068",
    "tot": "16",
    "sbi": "8",
    "mday": "20210628120709",
    "lat": "24.18161",
    "lng": "120.67207",
    "bemp": "8",
    "act": 1
  },
  {
    "scity": "台中市",
    "scityen": "Taichung City",
    "sna": "YouBike2.0_太原華美街口",
    "sarea": "北區",
    "ar": "太原路一段/華美街二段口(東北側)",
    "snaen": "YouBike2.0_Taiyuan Rd. / Huamei St.",
    "sareaen": "North Dist",
    "aren": "Sec. 1, Taiyuan Rd. & Sec. 2, Huamei St. Intersection (Northeast)",
    "sno": "500605040",
    "tot": "14",
    "sbi": "4",
    "mday": "20210628120809",
    "lat": "24.16482",
    "lng": "120.66496",
    "bemp": "10",
    "act": 1
  },
  {
    "scity": "台中市",
    "scityen": "Taichung City",
    "sna": "YouBike2.0_蓬勃運動中心",
    "sarea": "北屯區",
    "ar": "山西路二段/安順北一街口(西北側)",
    "snaen": "YouBike2.0_Pengbo Sports Center",
    "sareaen": "Beitun Dist",
    "aren": "Sec. 2, Shanxi Rd. & Anshun N. 1st St. Intersection (Northwest)",
    "sno": "500608069",
    "tot": "16",
    "sbi": "10",
    "mday": "20210628120709",
    "lat": "24.1764",
    "lng": "120.67659",
    "bemp": "6",
    "act": 1
  },
  {
    "scity": "台中市",
    "scityen": "Taichung City",
    "sna": "YouBike2.0_北屯國小",
    "sarea": "北屯區",
    "ar": "國校巷/北興街口(東北側)",
    "snaen": "YouBike2.0_Bei Tun Elementary School",
    "sareaen": "Beitun Dist",
    "aren": "Guoxiao Ln. & Beixing St. Intersection (Northeast)",
    "sno": "500608070",
    "tot": "12",
    "sbi": "6",
    "mday": "20210628120709",
    "lat": "24.16416",
    "lng": "120.69081",
    "bemp": "6",
    "act": 1
  },
  {
    "scity": "台中市",
    "scityen": "Taichung City",
    "sna": "YouBike2.0_大墩文化中心",
    "sarea": "西區",
    "ar": "五權路/英才路口(西側)",
    "snaen": "YouBike2.0_Dadun Cultural Center",
    "sareaen": "West Dist",
    "aren": "Wuquan Rd. & Yingcai Rd. Intersection (West)",
    "sno": "500603040",
    "tot": "20",
    "sbi": "7",
    "mday": "20210628120808",
    "lat": "24.14124",
    "lng": "120.66653",
    "bemp": "13",
    "act": 1
  },
  {
    "scity": "台中市",
    "scityen": "Taichung City",
    "sna": "YouBike2.0_梅川園道",
    "sarea": "北區",
    "ar": "梅川東路三段/尚德街127巷口(西側)",
    "snaen": "YouBike2.0_Meichuan Parkway",
    "sareaen": "North Dist",
    "aren": "Sec. 3, Meichuan E. Rd. & Ln. 127, Shangde St. (West)",
    "sno": "500605042",
    "tot": "14",
    "sbi": "7",
    "mday": "20210628120809",
    "lat": "24.16158",
    "lng": "120.6766",
    "bemp": "7",
    "act": 1
  },
  {
    "scity": "台中市",
    "scityen": "Taichung City",
    "sna": "YouBike2.0_楓香公園(楓樹南街)",
    "sarea": "南屯區",
    "ar": "楓樹南街243號(對側人行道)",
    "snaen": "YouBike2.0_Feng Xiang Park (Fengshu S. St.)",
    "sareaen": "Nantun Dist",
    "aren": "No.243, Fengshu S. St. (Opposite)",
    "sno": "500607039",
    "tot": "10",
    "sbi": "5",
    "mday": "20210628120708",
    "lat": "24.11569",
    "lng": "120.6289",
    "bemp": "5",
    "act": 1
  },
  {
    "scity": "台中市",
    "scityen": "Taichung City",
    "sna": "YouBike2.0_鎮平公園(楓樹西街366巷)",
    "sarea": "南屯區",
    "ar": "楓樹西街366巷/黎明路一段口(東側人行道)",
    "snaen": "YouBike2.0_Zhen Ping Park (Ln.366 Fengshu W. St.)",
    "sareaen": "Nantun Dist",
    "aren": "Ln. 366, Fengshu W. St. & Sec. 1, Liming Rd. Intersection (East)",
    "sno": "500607031",
    "tot": "10",
    "sbi": "3",
    "mday": "20210628120708",
    "lat": "24.12057",
    "lng": "120.62915",
    "bemp": "7",
    "act": 1
  },
  {
    "scity": "台中市",
    "scityen": "Taichung City",
    "sna": "YouBike2.0_大里兒青館",
    "sarea": "大里區",
    "ar": "新光路32號",
    "snaen": "YouBike2.0_Dali Child And Adolescent Service Center",
    "sareaen": "Dali Dist",
    "aren": "No.32, Xinguang Rd.",
    "sno": "500610006",
    "tot": "12",
    "sbi": "3",
    "mday": "20210628120709",
    "lat": "24.11036",
    "lng": "120.69199",
    "bemp": "9",
    "act": 1
  },
  {
    "scity": "台中市",
    "scityen": "Taichung City",
    "sna": "YouBike2.0_環河爽文路口",
    "sarea": "大里區",
    "ar": "環河路/爽文路口(西北側)",
    "snaen": "YouBike2.0_HuanHe Rd. / Shuangwun Rd.",
    "sareaen": "Dali Dist",
    "aren": "Huanhe Rd. & Shuangwen Rd. Intersection (Northwest)",
    "sno": "500610007",
    "tot": "13",
    "sbi": "4",
    "mday": "20210628120709",
    "lat": "24.116395",
    "lng": "120.674155",
    "bemp": "9",
    "act": 1
  },
  {
    "scity": "台中市",
    "scityen": "Taichung City",
    "sna": "YouBike2.0_內新國小(新仁路)",
    "sarea": "大里區",
    "ar": "新仁路二段57號(對側人行道)",
    "snaen": "YouBike2.0_Ne-Shin Elementary School (Xinren Rd.)",
    "sareaen": "Dali Dist",
    "aren": "No.57, Sec. 2, Xinren Rd. (Opposite)",
    "sno": "500610014",
    "tot": "26",
    "sbi": "7",
    "mday": "20210628120709",
    "lat": "24.11144",
    "lng": "120.69509",
    "bemp": "19",
    "act": 1
  },
  {
    "scity": "台中市",
    "scityen": "Taichung City",
    "sna": "YouBike2.0_經國園道",
    "sarea": "西區",
    "ar": "向上路一段/英才路口(西北側)",
    "snaen": "YouBike2.0_Greenway",
    "sareaen": "West Dist",
    "aren": "Sec. 1, Xiangshang Rd. & Yingcai Rd. Intersection (Northwest)",
    "sno": "500603050",
    "tot": "16",
    "sbi": "13",
    "mday": "20210628120809",
    "lat": "24.14677",
    "lng": "120.66477",
    "bemp": "3",
    "act": 1
  },
  {
    "scity": "台中市",
    "scityen": "Taichung City",
    "sna": "YouBike2.0_臺中教育大學",
    "sarea": "西區",
    "ar": "五權路/民權路口(西南側)",
    "snaen": "YouBike2.0_Taichung University Of Education",
    "sareaen": "West Dist",
    "aren": "Wuquan Rd.& Minquan Rd. (Southwest)",
    "sno": "500603041",
    "tot": "18",
    "sbi": "9",
    "mday": "20210628120808",
    "lat": "24.14521",
    "lng": "120.67118",
    "bemp": "9",
    "act": 1
  },
  {
    "scity": "台中市",
    "scityen": "Taichung City",
    "sna": "YouBike2.0_中正國小",
    "sarea": "西區",
    "ar": "英才路423號前",
    "snaen": "YouBike2.0_Chung-Cheng Elementary School",
    "sareaen": "West Dist",
    "aren": "No.423, Yingcai Rd.",
    "sno": "500603045",
    "tot": "31",
    "sbi": "14",
    "mday": "20210628120809",
    "lat": "24.15248",
    "lng": "120.66628",
    "bemp": "17",
    "act": 1
  },
  {
    "scity": "台中市",
    "scityen": "Taichung City",
    "sna": "YouBike2.0_國立臺灣美術館",
    "sarea": "西區",
    "ar": "五權西路一段/美村路一段口(東北側)",
    "snaen": "YouBike2.0_National Taiwan Museum of Fine Arts",
    "sareaen": "West Dist",
    "aren": "Sec. 1, Wuquan W. Rd. & Sec. 1, Meicun Rd. Intersection (Northeast)",
    "sno": "500603049",
    "tot": "18",
    "sbi": "2",
    "mday": "20210628120809",
    "lat": "24.14104",
    "lng": "120.66177",
    "bemp": "16",
    "act": 1
  },
  {
    "scity": "台中市",
    "scityen": "Taichung City",
    "sna": "YouBike2.0_忠明國小",
    "sarea": "西區",
    "ar": "臺灣大道二段/忠明南路口(西南側)",
    "snaen": "YouBike2.0_Chung-Ming Elementary School",
    "sareaen": "West Dist",
    "aren": "Sec. 2, Taiwan Blvd. & Zhongming S. Rd. Intersection (Southwest)",
    "sno": "500603038",
    "tot": "12",
    "sbi": "6",
    "mday": "20210628120808",
    "lat": "24.15676",
    "lng": "120.65917",
    "bemp": "6",
    "act": 1
  },
  {
    "scity": "台中市",
    "scityen": "Taichung City",
    "sna": "YouBike2.0_大興公園",
    "sarea": "南屯區",
    "ar": "南屯路二段/精誠南路口(西南側)",
    "snaen": "YouBike2.0_Da Sing Park",
    "sareaen": "Nantun Dist",
    "aren": "Sec. 2, Nantun Rd. & Jingcheng S. Rd. Intersection (Southwest)",
    "sno": "500607047",
    "tot": "16",
    "sbi": "5",
    "mday": "20210628120708",
    "lat": "24.13526",
    "lng": "120.65436",
    "bemp": "11",
    "act": 1
  },
  {
    "scity": "台中市",
    "scityen": "Taichung City",
    "sna": "YouBike2.0_英才公園",
    "sarea": "北區",
    "ar": "英才路/民權路口(東南側)",
    "snaen": "YouBike2.0_Yingcai Park",
    "sareaen": "North Dist",
    "aren": "Yingcai Rd. & Minquan Rd. Intersection (Southeast)",
    "sno": "500605041",
    "tot": "16",
    "sbi": "3",
    "mday": "20210628120809",
    "lat": "24.15562",
    "lng": "120.67097",
    "bemp": "13",
    "act": 1
  },
  {
    "scity": "台中市",
    "scityen": "Taichung City",
    "sna": "YouBike2.0_育德梅川東路口",
    "sarea": "北區",
    "ar": "育德路/梅川東路三段口(西南側)",
    "snaen": "YouBike2.0_Yude Rd. / Meichuan E. Rd.",
    "sareaen": "North Dist",
    "aren": "Yude Rd. & Sec. 3, Meichuan E. Rd. (Southwest)",
    "sno": "500605044",
    "tot": "16",
    "sbi": "6",
    "mday": "20210628120809",
    "lat": "24.15748",
    "lng": "120.67547",
    "bemp": "10",
    "act": 1
  },
  {
    "scity": "台中市",
    "scityen": "Taichung City",
    "sna": "YouBike2.0_大鵬國小",
    "sarea": "西屯區",
    "ar": "大鵬路/大鵬路59巷口(西南側)",
    "snaen": "YouBike2.0_Dapeng Elementary School",
    "sareaen": "Xitun Dist",
    "aren": "Dapeng Rd. & Ln. 59, Dapeng Rd. Intersection",
    "sno": "500606071",
    "tot": "12",
    "sbi": "6",
    "mday": "20210628120708",
    "lat": "24.17811",
    "lng": "120.66567",
    "bemp": "6",
    "act": 1
  },
  {
    "scity": "台中市",
    "scityen": "Taichung City",
    "sna": "YouBike2.0_臺灣大道玉門路口",
    "sarea": "西屯區",
    "ar": "臺灣大道四段/玉門路口(西南側)",
    "snaen": "YouBike2.0_Taiwan Blvd. / Yumen Rd.",
    "sareaen": "Xitun Dist",
    "aren": "Sec. 4, Taiwan Blvd. & Yumen Rd. Intersection",
    "sno": "500606072",
    "tot": "14",
    "sbi": "4",
    "mday": "20210628120708",
    "lat": "24.18425",
    "lng": "120.60975",
    "bemp": "10",
    "act": 1
  },
  {
    "scity": "台中市",
    "scityen": "Taichung City",
    "sna": "YouBike2.0_黎明國中",
    "sarea": "南屯區",
    "ar": "黎明路二段658號前",
    "snaen": "YouBike2.0_Li-Ming Junior High School",
    "sareaen": "Nantun Dist",
    "aren": "No.658, Sec. 2, Liming Rd.",
    "sno": "500607045",
    "tot": "18",
    "sbi": "3",
    "mday": "20210628120708",
    "lat": "24.15649",
    "lng": "120.63439",
    "bemp": "15",
    "act": 1
  },
  {
    "scity": "台中市",
    "scityen": "Taichung City",
    "sna": "YouBike2.0_向心兒童公園",
    "sarea": "南屯區",
    "ar": "文心南二路/向心南路口(東南側)",
    "snaen": "YouBike2.0_Xiangxin Children's park",
    "sareaen": "Nantun Dist",
    "aren": "Wenxin S. 2nd Rd. & Xiangxin S. Rd. Intersection (Southeast)",
    "sno": "500607046",
    "tot": "18",
    "sbi": "7",
    "mday": "20210628120708",
    "lat": "24.13593",
    "lng": "120.64462",
    "bemp": "11",
    "act": 1
  },
  {
    "scity": "台中市",
    "scityen": "Taichung City",
    "sna": "YouBike2.0_臺灣大道福林路口",
    "sarea": "西屯區",
    "ar": "臺灣大道四段/福林路口(西南側)",
    "snaen": "YouBike2.0_Taiwan Blvd. / Fulin Rd.",
    "sareaen": "Xitun Dist",
    "aren": "Sec. 4, Taiwan Blvd. & Fulin Rd. Intersection (Southwest)",
    "sno": "500606073",
    "tot": "16",
    "sbi": "5",
    "mday": "20210628120708",
    "lat": "24.18361",
    "lng": "120.61377",
    "bemp": "11",
    "act": 1
  },
  {
    "scity": "台中市",
    "scityen": "Taichung City",
    "sna": "YouBike2.0_安和國中",
    "sarea": "西屯區",
    "ar": "天助街/中工三路口(西南側)",
    "snaen": "YouBike2.0_Anher Junior High School",
    "sareaen": "Xitun Dist",
    "aren": "Tianzhu St. & Zhonggong 3rd Rd. Intersection (Southwest)",
    "sno": "500606074",
    "tot": "12",
    "sbi": "8",
    "mday": "20210628120708",
    "lat": "24.17396",
    "lng": "120.61723",
    "bemp": "4",
    "act": 1
  },
  {
    "scity": "台中市",
    "scityen": "Taichung City",
    "sna": "YouBike2.0_進德國小",
    "sarea": "東區",
    "ar": "進化路158號(對側人行道)",
    "snaen": "YouBike2.0_Jin-De Elementary School",
    "sareaen": "East Dist",
    "aren": "No.158, Jinhua Rd. (Opposite)",
    "sno": "500602036",
    "tot": "16",
    "sbi": "3",
    "mday": "20210628120808",
    "lat": "24.14607",
    "lng": "120.69429",
    "bemp": "13",
    "act": 1
  },
  {
    "scity": "台中市",
    "scityen": "Taichung City",
    "sna": "YouBike2.0_臺中一中",
    "sarea": "北區",
    "ar": "育才街/尊賢街口(東北側)",
    "snaen": "YouBike2.0_Taichung First Senior High School",
    "sareaen": "North Dist",
    "aren": "Yucai St. & Zunxian St. Intersection (Northeast)",
    "sno": "500605037",
    "tot": "20",
    "sbi": "11",
    "mday": "20210628120809",
    "lat": "24.14895",
    "lng": "120.68705",
    "bemp": "9",
    "act": 1
  },
  {
    "scity": "台中市",
    "scityen": "Taichung City",
    "sna": "YouBike2.0_興進園道",
    "sarea": "北區",
    "ar": "興進路/興進路76巷口(西南側)",
    "snaen": "YouBike2.0_Xingjin Parkway",
    "sareaen": "North Dist",
    "aren": "Xingjin Rd. & Ln. 76, Xingjin Rd. Intersection (Southwest)",
    "sno": "500605038",
    "tot": "18",
    "sbi": "6",
    "mday": "20210628120809",
    "lat": "24.15556",
    "lng": "120.69665",
    "bemp": "12",
    "act": 1
  },
  {
    "scity": "台中市",
    "scityen": "Taichung City",
    "sna": "YouBike2.0_福星公園",
    "sarea": "西屯區",
    "ar": "寶慶街50巷/河南路二段301巷(東側)",
    "snaen": "YouBike2.0_Fuxing Park",
    "sareaen": "Xitun Dist",
    "aren": "Ln. 50, Baoqing St. & Ln. 301, Sec. 2, Henan Rd. Intersection",
    "sno": "500606070",
    "tot": "20",
    "sbi": "10",
    "mday": "20210628120708",
    "lat": "24.17242",
    "lng": "120.6481",
    "bemp": "10",
    "act": 1
  },
  {
    "scity": "台中市",
    "scityen": "Taichung City",
    "sna": "YouBike2.0_北區行政大樓",
    "sarea": "北區",
    "ar": "永興街/太原路二段口(西南側)",
    "snaen": "YouBike2.0_Administration Building,Taichung City North District",
    "sareaen": "North Dist",
    "aren": "Yongxing St. & Sec. 2, Taiyuan Rd. Intersection (Southwest)",
    "sno": "500605036",
    "tot": "22",
    "sbi": "8",
    "mday": "20210628120809",
    "lat": "24.16607",
    "lng": "120.68241",
    "bemp": "14",
    "act": 1
  },
  {
    "scity": "台中市",
    "scityen": "Taichung City",
    "sna": "YouBike2.0_福順停車場",
    "sarea": "西屯區",
    "ar": "福順路/福元路(西南側)",
    "snaen": "YouBike2.0_Fushun Parking Lot",
    "sareaen": "Xitun Dist",
    "aren": "Fushun Rd. & Fuyuan Rd. Intersection (Southeast)",
    "sno": "500606062",
    "tot": "16",
    "sbi": "4",
    "mday": "20210628120708",
    "lat": "24.180058",
    "lng": "120.627221",
    "bemp": "12",
    "act": 1
  },
  {
    "scity": "台中市",
    "scityen": "Taichung City",
    "sna": "YouBike2.0_美村南平路口",
    "sarea": "南區",
    "ar": "美村路二段/南平路口(西北側)",
    "snaen": "YouBike2.0_Meicun Rd. / Nanping Rd.",
    "sareaen": "South Dist",
    "aren": "Sec. 2, Meicun Rd. & Nanping Rd. Intersection (Northwest)",
    "sno": "500604040",
    "tot": "12",
    "sbi": "4",
    "mday": "20210628120809",
    "lat": "24.123776",
    "lng": "120.665591",
    "bemp": "8",
    "act": 1
  },
  {
    "scity": "台中市",
    "scityen": "Taichung City",
    "sna": "YouBike2.0_臺中教育大學(英才校區)",
    "sarea": "西區",
    "ar": "民生路/民生路225巷口(西南側)",
    "snaen": "YouBike2.0_National Taichung University of Education (Yingcai Campus)",
    "sareaen": "West Dist",
    "aren": "Minsheng Rd. & Ln. 225, Minsheng Rd. Intersection (Southwest)",
    "sno": "500603034",
    "tot": "18",
    "sbi": "6",
    "mday": "20210628120808",
    "lat": "24.144309",
    "lng": "120.667731",
    "bemp": "12",
    "act": 1
  },
  {
    "scity": "台中市",
    "scityen": "Taichung City",
    "sna": "YouBike2.0_新興國小(新興路7巷)",
    "sarea": "北屯區",
    "ar": "新興路20號(對側停車場)",
    "snaen": "YouBike2.0_Xin-Xing Elementary School (Ln.7 Sinsing Rd.)",
    "sareaen": "Beitun Dist",
    "aren": "No.20, Xinxing Rd. (Opposite)",
    "sno": "500608052",
    "tot": "9",
    "sbi": "3",
    "mday": "20210628120709",
    "lat": "24.19454",
    "lng": "120.66211",
    "bemp": "6",
    "act": 1
  },
  {
    "scity": "台中市",
    "scityen": "Taichung City",
    "sna": "YouBike2.0_大鵬國小(中平路)",
    "sarea": "西屯區",
    "ar": "中平路/大鵬路口(東南側)",
    "snaen": "YouBike2.0_Da Peng Elementary School (Zhongping Rd.)",
    "sareaen": "Xitun Dist",
    "aren": "Zhongping Rd. & Dapeng Rd. Intersection (Southeast)",
    "sno": "500606053",
    "tot": "15",
    "sbi": "10",
    "mday": "20210628120708",
    "lat": "24.17793",
    "lng": "120.66484",
    "bemp": "5",
    "act": 1
  },
  {
    "scity": "台中市",
    "scityen": "Taichung City",
    "sna": "YouBike2.0_老樹公園(經貿一路)",
    "sarea": "北屯區",
    "ar": "經貿一路/順平路(西側)",
    "snaen": "YouBike2.0_Laoshu Park (Jingmao 1st Rd.)",
    "sareaen": "Beitun Dist",
    "aren": "Jingmao 1st Rd. & Shunping Rd. Intersection (West)",
    "sno": "500608060",
    "tot": "15",
    "sbi": "4",
    "mday": "20210628120709",
    "lat": "24.182571",
    "lng": "120.662381",
    "bemp": "11",
    "act": 1
  },
  {
    "scity": "台中市",
    "scityen": "Taichung City",
    "sna": "YouBike2.0_黎明中清路口",
    "sarea": "西屯區",
    "ar": "黎明路三段/中清路二段口(西南側)",
    "snaen": "YouBike2.0_Liming Rd. / Zhongqing Rd.",
    "sareaen": "Xitun Dist",
    "aren": "Sec. 3, Liming Rd. & Sec. 2, Zhongqing Rd. Intersection (Southwest)",
    "sno": "500606056",
    "tot": "17",
    "sbi": "4",
    "mday": "20210628120708",
    "lat": "24.19658",
    "lng": "120.65725",
    "bemp": "13",
    "act": 1
  },
  {
    "scity": "台中市",
    "scityen": "Taichung City",
    "sna": "YouBike2.0_忠明南美村南路口",
    "sarea": "南區",
    "ar": "忠明南路/美村南路口(東南側)",
    "snaen": "YouBike2.0_Zhorgming S. Rd. / Meicun S. Rd.",
    "sareaen": "South Dist",
    "aren": "Zhongming S. Rd. & Meicun S. Rd. Intersection (Southeast)",
    "sno": "500604042",
    "tot": "16",
    "sbi": "4",
    "mday": "20210628120809",
    "lat": "24.11898",
    "lng": "120.66733",
    "bemp": "12",
    "act": 1
  },
  {
    "scity": "台中市",
    "scityen": "Taichung City",
    "sna": "YouBike2.0_中山醫學大學",
    "sarea": "南區",
    "ar": "建國北路一段/東興路一段(西南側停車場內)",
    "snaen": "YouBike2.0_Chung Shan Medical University",
    "sareaen": "South Dist",
    "aren": "Sec. 1, Jianguo N. Rd. & Sec. 1, Dongxing Rd. Intersection (Southwest Parking Lot)",
    "sno": "500604043",
    "tot": "16",
    "sbi": "4",
    "mday": "20210628120809",
    "lat": "24.12212",
    "lng": "120.65271",
    "bemp": "12",
    "act": 1
  },
  {
    "scity": "台中市",
    "scityen": "Taichung City",
    "sna": "YouBike2.0_中德公園(忠明六街)",
    "sarea": "北區",
    "ar": "忠明六街26號(對側人行道)",
    "snaen": "YouBike2.0_Zhong De Park (Zhongming 6th St.)",
    "sareaen": "North Dist",
    "aren": "No.26, Zhongming 6th St. (Opposite)",
    "sno": "500605034",
    "tot": "26",
    "sbi": "8",
    "mday": "20210628120809",
    "lat": "24.1637",
    "lng": "120.66819",
    "bemp": "18",
    "act": 1
  },
  {
    "scity": "台中市",
    "scityen": "Taichung City",
    "sna": "YouBike2.0_環中東復興路一段口",
    "sarea": "潭子區",
    "ar": "環中東路一段97號前",
    "snaen": "YouBike2.0_Huanzhong E. Rd. / Fuxing Rd. Sec.1",
    "sareaen": "Tanzi Dist",
    "aren": "No.97, Sec. 1, Huanzhong E. Rd.",
    "sno": "500623017",
    "tot": "14",
    "sbi": "6",
    "mday": "20210628120710",
    "lat": "24.2009",
    "lng": "120.70633",
    "bemp": "8",
    "act": 1
  },
  {
    "scity": "台中市",
    "scityen": "Taichung City",
    "sna": "YouBike2.0_摘星山莊",
    "sarea": "潭子區",
    "ar": "潭富路二段88號",
    "snaen": "YouBike2.0_Zhaixing Villa",
    "sareaen": "Tanzi Dist",
    "aren": "No.88, Sec. 2, Tanfu Rd.",
    "sno": "500623018",
    "tot": "14",
    "sbi": "6",
    "mday": "20210628120710",
    "lat": "24.22401",
    "lng": "120.69663",
    "bemp": "8",
    "act": 1
  },
  {
    "scity": "台中市",
    "scityen": "Taichung City",
    "sna": "YouBike2.0_大鵬臨停停車場",
    "sarea": "西屯區",
    "ar": "中清西二街/中清西二街92巷口(西北側)",
    "snaen": "YouBike2.0_Dapeng Parking Lot",
    "sareaen": "Xitun Dist",
    "aren": "Zhongqing W. 2nd St. & Ln. 92, Zhongqing W. 2nd St. Intersection (Northwest)",
    "sno": "500606057",
    "tot": "15",
    "sbi": "4",
    "mday": "20210628120708",
    "lat": "24.17569",
    "lng": "120.66549",
    "bemp": "11",
    "act": 1
  },
  {
    "scity": "台中市",
    "scityen": "Taichung City",
    "sna": "YouBike2.0_博館育德路口",
    "sarea": "北區",
    "ar": "博館路/育德路口(西南側)",
    "snaen": "YouBike2.0_Boguan Rd. / Yude Rd.",
    "sareaen": "North Dist",
    "aren": "Boguan Rd. & Yude Rd. Intersection (Southwest)",
    "sno": "500605035",
    "tot": "28",
    "sbi": "10",
    "mday": "20210628120809",
    "lat": "24.15746",
    "lng": "120.66911",
    "bemp": "18",
    "act": 1
  },
  {
    "scity": "台中市",
    "scityen": "Taichung City",
    "sna": "YouBike2.0_公益公園",
    "sarea": "西區",
    "ar": "忠明南路/公益路口(東南側)",
    "snaen": "YouBike2.0_Gongyi Park",
    "sareaen": "West Dist",
    "aren": "Zhongming S. Rd. & Gongyi Rd. Intersection (Southeast)",
    "sno": "500603037",
    "tot": "10",
    "sbi": "3",
    "mday": "20210628120808",
    "lat": "24.15071",
    "lng": "120.65752",
    "bemp": "7",
    "act": 1
  },
  {
    "scity": "台中市",
    "scityen": "Taichung City",
    "sna": "YouBike2.0_力行國小",
    "sarea": "東區",
    "ar": "力行路/進化路口(西南側)",
    "snaen": "YouBike2.0_Li Sing Elementary School",
    "sareaen": "East Dist",
    "aren": "Lixing Rd. & Jinhua Rd. Intersection (Southwest)",
    "sno": "500602035",
    "tot": "20",
    "sbi": "7",
    "mday": "20210628120808",
    "lat": "24.15157",
    "lng": "120.69372",
    "bemp": "13",
    "act": 1
  },
  {
    "scity": "台中市",
    "scityen": "Taichung City",
    "sna": "YouBike2.0_長青公園(北平路)",
    "sarea": "北區",
    "ar": "北平路一段/北平二街口(東北側)",
    "snaen": "YouBike2.0_Chang Qing Park (Beiping Rd.)",
    "sareaen": "North Dist",
    "aren": "Sec. 1, Beiping Rd. & Beiping 2nd St. Intersection (Northeast)",
    "sno": "500605030",
    "tot": "22",
    "sbi": "3",
    "mday": "20210628120809",
    "lat": "24.17177",
    "lng": "120.66965",
    "bemp": "19",
    "act": 1
  },
  {
    "scity": "台中市",
    "scityen": "Taichung City",
    "sna": "YouBike2.0_武昌公園(武昌路)",
    "sarea": "北區",
    "ar": "武昌路/陜西路口(西北側)",
    "snaen": "YouBike2.0_Wuchang Park (Wuchang Rd.)",
    "sareaen": "North Dist",
    "aren": "Wuchang Rd. & Shanxi Rd. Intersection (Northwest)",
    "sno": "500605031",
    "tot": "26",
    "sbi": "7",
    "mday": "20210628120809",
    "lat": "24.16879",
    "lng": "120.66804",
    "bemp": "19",
    "act": 1
  },
  {
    "scity": "台中市",
    "scityen": "Taichung City",
    "sna": "YouBike2.0_曉明公園(陝西東五街)",
    "sarea": "北區",
    "ar": "陝西東五街121號(對側人行道)",
    "snaen": "YouBike2.0_Xiao Ming Park (Xiaxi E.5th St.)",
    "sareaen": "North Dist",
    "aren": "No.121, Shanxi E. 5th St. (Opposite)",
    "sno": "500605032",
    "tot": "27",
    "sbi": "7",
    "mday": "20210628120809",
    "lat": "24.16819",
    "lng": "120.67118",
    "bemp": "20",
    "act": 1
  },
  {
    "scity": "台中市",
    "scityen": "Taichung City",
    "sna": "YouBike2.0_太原北中清路口(西側)",
    "sarea": "北區",
    "ar": "太原北路/太原九街口(南側)",
    "snaen": "YouBike2.0_Taiyuan N. Rd. / Zhongqing Rd. (West)",
    "sareaen": "North Dist",
    "aren": "Taiyuan N. Rd. & Taiyuan 9th St. Intersection (South)",
    "sno": "500605033",
    "tot": "19",
    "sbi": "10",
    "mday": "20210628120809",
    "lat": "24.16509",
    "lng": "120.67322",
    "bemp": "9",
    "act": 1
  },
  {
    "scity": "台中市",
    "scityen": "Taichung City",
    "sna": "YouBike2.0_頭家公園",
    "sarea": "潭子區",
    "ar": "頭張路一段159號(對側人行道)",
    "snaen": "YouBike2.0_Toujia Park",
    "sareaen": "Tanzi Dist",
    "aren": "No.159, Sec. 2, Touzhang Rd. (Opposite)",
    "sno": "500623003",
    "tot": "15",
    "sbi": "9",
    "mday": "20210628120710",
    "lat": "24.19466",
    "lng": "120.69812",
    "bemp": "6",
    "act": 1
  },
  {
    "scity": "台中市",
    "scityen": "Taichung City",
    "sna": "YouBike2.0_頭家國小",
    "sarea": "潭子區",
    "ar": "得福街185號",
    "snaen": "YouBike2.0_Toujia Elementary School",
    "sareaen": "Tanzi Dist",
    "aren": "No.185, Defu St.",
    "sno": "500623004",
    "tot": "15",
    "sbi": "6",
    "mday": "20210628120710",
    "lat": "24.19696",
    "lng": "120.69618",
    "bemp": "9",
    "act": 1
  },
  {
    "scity": "台中市",
    "scityen": "Taichung City",
    "sna": "YouBike2.0_豐栗安和路106巷口",
    "sarea": "潭子區",
    "ar": "豐栗路158號",
    "snaen": "YouBike2.0_Fengli Rd. / Ln. 106 Anhe Rd.",
    "sareaen": "Tanzi Dist",
    "aren": "No.158, Fengli Rd.",
    "sno": "500623012",
    "tot": "15",
    "sbi": "6",
    "mday": "20210628120710",
    "lat": "24.23163",
    "lng": "120.70538",
    "bemp": "9",
    "act": 1
  },
  {
    "scity": "台中市",
    "scityen": "Taichung City",
    "sna": "YouBike2.0_國立自然科學博物館(博館路)",
    "sarea": "北區",
    "ar": "博館路/中興街(西北側)",
    "snaen": "YouBike2.0_National Museum of Natural Science (Boguan Rd.)",
    "sareaen": "North Dist",
    "aren": "Boguan Rd. & Zhongxing St. Intersection (Northwest)",
    "sno": "500605023",
    "tot": "45",
    "sbi": "6",
    "mday": "20210628120809",
    "lat": "24.15683",
    "lng": "120.66509",
    "bemp": "39",
    "act": 1
  },
  {
    "scity": "台中市",
    "scityen": "Taichung City",
    "sna": "YouBike2.0_四平公園",
    "sarea": "北屯區",
    "ar": "后庄路1046巷/后庄路1068巷口(西北側)",
    "snaen": "YouBike2.0_Siping Park",
    "sareaen": "Beitun Dist",
    "aren": "Ln. 1046, Houzhuang Rd. & Ln. 1068, Houzhuang Rd. Intersection (Northwest)",
    "sno": "500608056",
    "tot": "20",
    "sbi": "3",
    "mday": "20210628120709",
    "lat": "24.19207",
    "lng": "120.68019",
    "bemp": "17",
    "act": 1
  },
  {
    "scity": "台中市",
    "scityen": "Taichung City",
    "sna": "YouBike2.0_中山路241巷中山路口",
    "sarea": "潭子區",
    "ar": "中山路241巷/中山路二段口(西南側)",
    "snaen": "YouBike2.0_Ln.241 Zhongshan Rd. / Zhongshan Rd.",
    "sareaen": "Tanzi Dist",
    "aren": "Ln. 241, Zhongshan Rd. & Sec. 2, Zhongshan Rd. Intersection (Southwest)",
    "sno": "500623016",
    "tot": "15",
    "sbi": "4",
    "mday": "20210628120710",
    "lat": "24.20982",
    "lng": "120.70506",
    "bemp": "11",
    "act": 1
  },
  {
    "scity": "台中市",
    "scityen": "Taichung City",
    "sna": "YouBike2.0_進化廣場(興進路)",
    "sarea": "北區",
    "ar": "興進路181號",
    "snaen": "YouBike2.0_Jinhua Square (Xingjin Rd.)",
    "sareaen": "North Dist",
    "aren": "No.181, Xingjin Rd.",
    "sno": "500605012",
    "tot": "12",
    "sbi": "3",
    "mday": "20210628120809",
    "lat": "24.1552",
    "lng": "120.69315",
    "bemp": "9",
    "act": 1
  },
  {
    "scity": "台中市",
    "scityen": "Taichung City",
    "sna": "YouBike2.0_福科永福路口",
    "sarea": "西屯區",
    "ar": "福科路/永福路口(西北側)",
    "snaen": "YouBike2.0_Fu Ke Rd. / Yongfu Rd.",
    "sareaen": "Xitun Dist",
    "aren": "Fuke Rd & Yongfu Rd. Intersection (Northeast)",
    "sno": "500606063",
    "tot": "12",
    "sbi": "4",
    "mday": "20210628120708",
    "lat": "24.184159",
    "lng": "120.620425",
    "bemp": "8",
    "act": 1
  },
  {
    "scity": "台中市",
    "scityen": "Taichung City",
    "sna": "YouBike2.0_福科福康路口",
    "sarea": "西屯區",
    "ar": "福科路/福康路口(西北側)",
    "snaen": "YouBike2.0_Fu Ke Rd. / Fukang Rd.",
    "sareaen": "Xitun Dist",
    "aren": "Fuke Rd. & Fukang Rd. Intersection (Northwest)",
    "sno": "500606066",
    "tot": "16",
    "sbi": "10",
    "mday": "20210628120708",
    "lat": "24.185521",
    "lng": "120.617429",
    "bemp": "6",
    "act": 1
  },
  {
    "scity": "台中市",
    "scityen": "Taichung City",
    "sna": "YouBike2.0_黎明公園",
    "sarea": "南屯區",
    "ar": "懷德街/干城街口(西南側)",
    "snaen": "YouBike2.0_Liming Park",
    "sareaen": "Nantun Dist",
    "aren": "Huaide St. & Gancheng St. Intersection (Southwest)",
    "sno": "500607036",
    "tot": "18",
    "sbi": "8",
    "mday": "20210628120708",
    "lat": "24.15529",
    "lng": "120.629923",
    "bemp": "10",
    "act": 1
  },
  {
    "scity": "台中市",
    "scityen": "Taichung City",
    "sna": "YouBike2.0_雷虎公園",
    "sarea": "北屯區",
    "ar": "雷中街19巷34弄37號(對側公園)",
    "snaen": "YouBike2.0_Lei Hu Park",
    "sareaen": "Beitun Dist",
    "aren": "No.37, Aly. 34, Ln. 19, Leizhong St. (Opposite)",
    "sno": "500608057",
    "tot": "12",
    "sbi": "5",
    "mday": "20210628120709",
    "lat": "24.18231",
    "lng": "120.66735",
    "bemp": "7",
    "act": 1
  },
  {
    "scity": "台中市",
    "scityen": "Taichung City",
    "sna": "YouBike2.0_永隆里活動中心",
    "sarea": "大里區",
    "ar": "永隆六街/永隆六街32巷口(西南側)",
    "snaen": "YouBike2.0_YongLong Public Activity Center",
    "sareaen": "Dali Dist",
    "aren": "Yonglong 6th St. & Ln. 32, Yonglong 6th St. Intersection(Southwest)",
    "sno": "500610002",
    "tot": "14",
    "sbi": "10",
    "mday": "20210628120709",
    "lat": "24.112751",
    "lng": "120.673681",
    "bemp": "4",
    "act": 1
  },
  {
    "scity": "台中市",
    "scityen": "Taichung City",
    "sna": "YouBike2.0_洲際棒球場(崇德十九路)",
    "sarea": "北屯區",
    "ar": "崇德十九路/四平路口(東南側)",
    "snaen": "YouBike2.0_Intercontinental Baseball Stadium (Chongde 19th Rd.)",
    "sareaen": "Beitun Dist",
    "aren": "Chongde 19th Rd. & Siping Rd. Intersection (Southeast)",
    "sno": "500608063",
    "tot": "15",
    "sbi": "5",
    "mday": "20210628120709",
    "lat": "24.19795",
    "lng": "120.68357",
    "bemp": "10",
    "act": 1
  },
  {
    "scity": "台中市",
    "scityen": "Taichung City",
    "sna": "YouBike2.0_后庄公園",
    "sarea": "北屯區",
    "ar": "后庄三街 205 巷/庄美街(東南側)",
    "snaen": "YouBike2.0_Houzhuang Park",
    "sareaen": "Beitun Dist",
    "aren": "Ln. 205, Houzhuang 3rd St. & Zhuangmei St. Intersection (Southeast)",
    "sno": "500608065",
    "tot": "15",
    "sbi": "6",
    "mday": "20210628120709",
    "lat": "24.19141",
    "lng": "120.66219",
    "bemp": "9",
    "act": 1
  },
  {
    "scity": "台中市",
    "scityen": "Taichung City",
    "sna": "YouBike2.0_臺灣大道福安路口(西北側)",
    "sarea": "西屯區",
    "ar": "台灣大道四段/福安路口(西北側)",
    "snaen": "YouBike2.0_Taiwan Blvd. / Fu-an Rd.",
    "sareaen": "Xitun Dist",
    "aren": "Sec. 4, Taiwan Blvd. & Fu'an Rd. Intersection (Northeast)",
    "sno": "500606060",
    "tot": "10",
    "sbi": "3",
    "mday": "20210628120708",
    "lat": "24.180186",
    "lng": "120.621505",
    "bemp": "7",
    "act": 1
  },
  {
    "scity": "台中市",
    "scityen": "Taichung City",
    "sna": "YouBike2.0_工學南和路口",
    "sarea": "南區",
    "ar": "工學路/南和路口(東南側)",
    "snaen": "YouBike2.0_Gongxue Rd. / Nanhe Rd.",
    "sareaen": "South Dist",
    "aren": "Gongxue Rd. & Nanhe Rd. Intersection (Southeast)",
    "sno": "500604032",
    "tot": "20",
    "sbi": "10",
    "mday": "20210628120809",
    "lat": "24.116817",
    "lng": "120.66844",
    "bemp": "10",
    "act": 1
  },
  {
    "scity": "台中市",
    "scityen": "Taichung City",
    "sna": "YouBike2.0_忠明南工學二街口",
    "sarea": "南區",
    "ar": "忠明南路/工學二街口(東南側)",
    "snaen": "YouBike2.0_Zhongming S. Rd. / Gongxue 2nd St.",
    "sareaen": "South Dist",
    "aren": "Zhongming S. Rd. & Gongxue 2nd St. Intersection (Southeast)",
    "sno": "500604033",
    "tot": "13",
    "sbi": "3",
    "mday": "20210628120809",
    "lat": "24.11897",
    "lng": "120.66449",
    "bemp": "10",
    "act": 1
  },
  {
    "scity": "台中市",
    "scityen": "Taichung City",
    "sna": "YouBike2.0_忠明南工學五街口",
    "sarea": "南區",
    "ar": "忠明南路/工學五街口(東南側)",
    "snaen": "YouBike2.0_Zhongming S. Rd. / Gongxue 5th St.",
    "sareaen": "South Dist",
    "aren": "Zhongming S. Rd. & Gongxue 5th St. Intersection (Southeast)",
    "sno": "500604034",
    "tot": "12",
    "sbi": "6",
    "mday": "20210628120809",
    "lat": "24.119607",
    "lng": "120.663345",
    "bemp": "6",
    "act": 1
  },
  {
    "scity": "台中市",
    "scityen": "Taichung City",
    "sna": "YouBike2.0_大慶街二段6-16巷文心南路口",
    "sarea": "南區",
    "ar": "大慶街二段6-16巷/文心南路口(西南側)",
    "snaen": "YouBike2.0_Ln.6-16 Daqing St. Sec.2 / Wenxin S. Rd.",
    "sareaen": "South Dist",
    "aren": "Ln.6-16, Daqing St. & Wenxin S. Rd. Intersection (Southwest)",
    "sno": "500604031",
    "tot": "20",
    "sbi": "7",
    "mday": "20210628120809",
    "lat": "24.11638",
    "lng": "120.65387",
    "bemp": "13",
    "act": 1
  },
  {
    "scity": "台中市",
    "scityen": "Taichung City",
    "sna": "YouBike2.0_文心南九向心南路口",
    "sarea": "南屯區",
    "ar": "文心南九路/向心南路口(兩側人行道)",
    "snaen": "YouBike2.0_Wenxin S. 9th Rd. / Xiangxin S. Rd.",
    "sareaen": "Nantun Dist",
    "aren": "Wenxin S. 9th Rd. & Xiangxin S. Rd. Intersection",
    "sno": "500607026",
    "tot": "13",
    "sbi": "5",
    "mday": "20210628120708",
    "lat": "24.12784",
    "lng": "120.64366",
    "bemp": "8",
    "act": 1
  },
  {
    "scity": "台中市",
    "scityen": "Taichung City",
    "sna": "YouBike2.0_萬壽棒球場(向上路）",
    "sarea": "西區",
    "ar": "向上路一段/大進街口(西南側)",
    "snaen": "YouBike2.0_Wan-Shou Baseball Field (Xiangshang Rd.)",
    "sareaen": "West Dist",
    "aren": "Sec. 1, Xiangshang Rd. & Dajin St. Intersection (Southwest)",
    "sno": "500603033",
    "tot": "22",
    "sbi": "7",
    "mday": "20210628120808",
    "lat": "24.1466031",
    "lng": "120.6507125",
    "bemp": "15",
    "act": 1
  },
  {
    "scity": "台中市",
    "scityen": "Taichung City",
    "sna": "YouBike2.0_公館公園(自由路)",
    "sarea": "西區",
    "ar": "自由路一段/三民路一段口",
    "snaen": "YouBike2.0_Gong Guan Park (Ziyou Rd.)",
    "sareaen": "West Dist",
    "aren": "Sec. 1, Ziyou Rd. & Sec. 1, Sanmin Rd.  Intersection",
    "sno": "500603021",
    "tot": "20",
    "sbi": "8",
    "mday": "20210628120808",
    "lat": "24.13214",
    "lng": "120.66928",
    "bemp": "12",
    "act": 1
  },